[{"id":1589,"name":"AHG Klinik und Moorbad","lat":52.774639,"lon":14.020687,"city":"Bad Freienwalde (Oder)"},{"id":1574,"name":"Ambulante Psychosomatik & Familienclearing GmbH","lat":52.375472,"lon":12.9299,"city":"Werder (Havel)"},{"id":217,"name":"ASKLEPIOS Fachklinikum Brandenburg","lat":52.423081,"lon":12.480083,"city":"Brandenburg an der Havel"},{"id":273,"name":"ASKLEPIOS Fachklinikum Lübben","lat":51.935819,"lon":13.886778,"city":"Lübben (Spreewald)"},{"id":1179,"name":"ASKLEPIOS Fachklinikum Teupitz","lat":52.131223,"lon":13.617899,"city":"Teupitz"},{"id":572,"name":"ASKLEPIOS Klinik Birkenwerder","lat":52.691958,"lon":13.298467,"city":"Birkenwerder"},{"id":1182,"name":"ASKLEPIOS Klinikum Uckermark GmbH","lat":53.052898,"lon":14.275875,"city":"Schwedt/Oder"},{"id":1621,"name":"Brandenburgklinik Berlin-Brandenburg","lat":52.731626,"lon":13.490369,"city":"Bernau-Waldsiedlung"},{"id":537,"name":"Elbe-Elster Klinikum GmbH","lat":51.635698,"lon":13.698165,"city":"Finsterwalde"},{"id":1592,"name":"Ernst von Bergmann Klinikum - Psychiatrie, Psychotherapie","lat":52.384673,"lon":13.136552,"city":""},{"id":1584,"name":"Ev. Krankenhaus Lutherstift","lat":52.332804,"lon":14.536049,"city":""},{"id":1587,"name":"Evangelische Kliniken Luise-Henrietten-Stift Lehnin","lat":52.322352,"lon":12.744652,"city":"Kloster Lehnin"},{"id":1178,"name":"Evangelisches Krankenhaus Luckau gGmbH","lat":51.853728,"lon":13.703226,"city":"Luckau (NL)"},{"id":1582,"name":"Evangelisches Krankenhaus Ludwigsfelde-Teltow","lat":52.310766,"lon":13.257867,"city":"Ludwigsfelde"},{"id":1581,"name":"Fontane-Klinik Motzen","lat":52.181503,"lon":13.598616,"city":"Mittenwalde"},{"id":1617,"name":"GLG Fachklinik Wolletzsee","lat":53.025186,"lon":13.90729,"city":"Angermünde"},{"id":1614,"name":"GLG Krankenhaus Angermünde","lat":53.012624,"lon":13.988439,"city":""},{"id":1611,"name":"Gutsschloss Blossin","lat":52.25499,"lon":13.798825,"city":"Heidesee"},{"id":1619,"name":"Haus Klein Linde","lat":53.109447,"lon":11.944996,"city":"Groß Pankow (Prignitz)"},{"id":1573,"name":"Hausarztpraxis-Bernau","lat":52.676903,"lon":13.584458,"city":"Bernau bei Berlin"},{"id":511,"name":"Havelland Kliniken GmbH","lat":52.599768,"lon":12.874926,"city":"Falkensee"},{"id":1605,"name":"Heinrich-Heine-Klinik","lat":52.446362,"lon":13.054773,"city":"Potsdam"},{"id":208,"name":"Helios Klinikum Bad Saarow","lat":52.283702,"lon":14.062351,"city":"Bad Saarow"},{"id":118,"name":"Immanuel Klinik Rüdersdorf","lat":52.45462,"lon":13.772917,"city":"Rüdersdorf bei Berlin"},{"id":1177,"name":"Immanuel Klinikum Bernau Herzzentrum Brandenburg","lat":52.683177,"lon":13.582661,"city":"Bernau bei Berlin"},{"id":1610,"name":"Johanniter Krankenhaus Treuenbrietzen","lat":52.081782,"lon":12.876723,"city":""},{"id":1615,"name":"Klinik Ernst von Bergmann Bad Belzig","lat":52.140621,"lon":12.59907,"city":""},{"id":249,"name":"Klinikum Dahme-Spreewald GmbH","lat":51.944204,"lon":13.874777,"city":"Lübben (Spreewald)"},{"id":1590,"name":"Klinikum Ernst von Bergmann","lat":52.401209,"lon":13.066131,"city":"Potsdam"},{"id":1583,"name":"Klinikum Frankfurt (Oder)","lat":52.300647,"lon":14.481176,"city":""},{"id":1585,"name":"Klinikum Frankfurt (Oder) - Zweigstelle","lat":52.341282,"lon":14.54259,"city":""},{"id":471,"name":"Klinikum Niederlausitz GmbH","lat":51.49854,"lon":13.789126,"city":"Lauchhammer"},{"id":1599,"name":"KMG Elbtalklinik","lat":52.963622,"lon":11.951825,"city":"Bad Wilsnack"},{"id":1580,"name":"KMG Klinikum AG Kyritz","lat":52.948463,"lon":12.388354,"city":""},{"id":189,"name":"KMG Klinikum Luckenwalde","lat":53.148881,"lon":12.169212,"city":"Luckenwalde"},{"id":489,"name":"KMG Klinikum Mitte GmbH","lat":51.16215,"lon":11.121934,"city":"Kyritz"},{"id":1608,"name":"KMG Klinikum Wittstock","lat":53.170833,"lon":12.484955,"city":"Wittstock/Dosse"},{"id":1596,"name":"Krankenhaus Elsterwerda","lat":51.455898,"lon":13.522033,"city":"Elsterwerda"},{"id":1613,"name":"Krankenhaus Herzberg","lat":51.68547,"lon":13.207628,"city":"Herzberg (Elster)"},{"id":1616,"name":"Krankenhaus Märkisch-Oderland","lat":52.588832,"lon":13.900764,"city":""},{"id":1612,"name":"Krankenhaus Märkisch-Oderland Wriezen","lat":52.721429,"lon":14.127735,"city":"Wriezen"},{"id":1618,"name":"Krankenhaus Seelow","lat":52.537276,"lon":14.376025,"city":""},{"id":21,"name":"Krankenhaus Spremberg","lat":51.565215,"lon":14.373924,"city":"Spremberg (NL)"},{"id":1609,"name":"Kreiskrankenhaus Prenzlau","lat":53.334113,"lon":13.867782,"city":""},{"id":606,"name":"Kreiskrankenhaus Prignitz gGmbH","lat":53.073481,"lon":11.873782,"city":"Perleberg"},{"id":1600,"name":"Lausitz Klinik Forst","lat":51.75487,"lon":14.638069,"city":""},{"id":1607,"name":"Martin-Gropius-Krankenhaus","lat":52.845359,"lon":13.828335,"city":"Eberswalde"},{"id":113,"name":"MEDIAN Klinik Grünheide Fach-KH für neurolog. Früreha. Phase B","lat":52.423944,"lon":13.813195,"city":"Grünheide (Mark)"},{"id":1604,"name":"MEDIAN-Klinik Hoppegarten","lat":52.504585,"lon":13.660374,"city":"Hoppegarten"},{"id":1594,"name":"Medizinische Universität Lausitz – Carl Thiem","lat":51.742455,"lon":14.322267,"city":"Cottbus"},{"id":1586,"name":"Naemi-Wilke-Stift","lat":51.94549,"lon":14.71435,"city":""},{"id":1572,"name":"Naturheilpraxis Kierstein","lat":52.532717,"lon":14.381195,"city":"Seelow"},{"id":1575,"name":"Neurologische Rehabilitationsklinik Beelitz-Heilstätten","lat":52.267245,"lon":12.924715,"city":"Beelitz"},{"id":1579,"name":"Neurologisches Fachkrankenhaus für Bewegungsstörungen / Parkinson","lat":52.255412,"lon":12.929442,"city":""},{"id":762,"name":"Oberhavel Klinik Gransee GmbH","lat":52.998951,"lon":13.144217,"city":"Gransee"},{"id":1576,"name":"Oberhavel Kliniken","lat":52.742947,"lon":13.241946,"city":""},{"id":647,"name":"Oberhavel Kliniken GmbH Krankenhaus","lat":52.655771,"lon":13.190925,"city":"Hennigsdorf"},{"id":1593,"name":"Oberlinklinik","lat":52.394048,"lon":13.089118,"city":"Potsdam"},{"id":1620,"name":"Oder-Spree Krankenhaus Beeskow","lat":52.170383,"lon":14.241561,"city":"Beeskow"},{"id":1595,"name":"REHA-Klinik \"Hoher Fläming\"","lat":52.165129,"lon":12.586713,"city":"Bad Belzig"},{"id":1591,"name":"Ruppiner Kliniken","lat":52.992894,"lon":12.957646,"city":""},{"id":1603,"name":"salus klinik Lindow","lat":52.967076,"lon":12.959886,"city":"Lindow (Mark)"},{"id":1578,"name":"Sana Kliniken Niederlausitz","lat":51.527377,"lon":14.000661,"city":""},{"id":1598,"name":"Sana Kliniken Sommerfeld","lat":52.811374,"lon":13.035644,"city":"Kremmen"},{"id":1606,"name":"Sana Krankenhaus Gottesfriede Woltersdorf","lat":52.447548,"lon":13.762169,"city":"Woltersdorf"},{"id":1577,"name":"Sana Krankenhaus Templin","lat":53.119187,"lon":13.506338,"city":""},{"id":1588,"name":"St. Marienkrankenhaus Brandenburg","lat":52.415091,"lon":12.551895,"city":"Brandenburg an der Havel"},{"id":1602,"name":"St.-Josefs-Krankenhaus","lat":52.399446,"lon":13.044303,"city":"Potsdam"},{"id":1180,"name":"Städtisches Krankenhaus Eisenhüttenstadt GmbH","lat":52.141203,"lon":14.625088,"city":"Eisenhüttenstadt"},{"id":1597,"name":"ukrb Universitätsklinikum Ruppin-Brandenburg","lat":52.906594,"lon":12.797166,"city":"Neuruppin"},{"id":218,"name":"Universitätsklinikum Brandenburg an der Havel GmbH","lat":52.413799,"lon":12.546073,"city":"Brandenburg an der Havel"},{"id":612,"name":"VAMED Klinik Hohenstücken KH","lat":52.433494,"lon":12.512718,"city":"Brandenburg an der Havel"},{"id":1601,"name":"Werner Forßmann Krankenhaus","lat":52.82872,"lon":13.79058,"city":"Eberswalde"}]
