[{"id":217,"name":"ASKLEPIOS Fachklinikum Brandenburg","lat":52.423081,"lon":12.480083,"city":"Brandenburg an der Havel"},{"id":1176,"name":"ASKLEPIOS Fachklinikum Brandenburg","lat":52.423081,"lon":12.480083,"city":"Brandenburg an der Havel"},{"id":273,"name":"ASKLEPIOS Fachklinikum Lübben","lat":51.935819,"lon":13.886778,"city":"Lübben (Spreewald)"},{"id":1179,"name":"ASKLEPIOS Fachklinikum Teupitz","lat":52.131223,"lon":13.617899,"city":"Teupitz"},{"id":572,"name":"ASKLEPIOS Klinik Birkenwerder","lat":52.691958,"lon":13.298467,"city":"Birkenwerder"},{"id":1182,"name":"ASKLEPIOS Klinikum Uckermark GmbH","lat":53.052898,"lon":14.275875,"city":"Schwedt/Oder"},{"id":537,"name":"Elbe-Elster Klinikum GmbH","lat":51.635698,"lon":13.698165,"city":"Finsterwalde"},{"id":1178,"name":"Evangelisches Krankenhaus Luckau gGmbH","lat":51.853728,"lon":13.703226,"city":"Luckau (NL)"},{"id":511,"name":"Havelland Kliniken GmbH","lat":52.599768,"lon":12.874926,"city":"Falkensee"},{"id":586,"name":"Havelland Kliniken GmbH","lat":52.607406,"lon":12.348532,"city":"Rathenow"},{"id":208,"name":"Helios Klinikum Bad Saarow","lat":52.154493,"lon":10.318093,"city":"Bad Saarow"},{"id":267,"name":"Helios Klinikum Bad Saarow","lat":48.031029,"lon":7.585832,"city":"Bad Saarow"},{"id":923,"name":"Helios Klinikum Bad Saarow","lat":48.165446,"lon":8.612346,"city":"Bad Saarow"},{"id":949,"name":"Helios Klinikum Bad Saarow","lat":51.487459,"lon":9.140944,"city":"Bad Saarow"},{"id":118,"name":"Immanuel Klinik Rüdersdorf","lat":52.45462,"lon":13.772917,"city":"Rüdersdorf bei Berlin"},{"id":1177,"name":"Immanuel Klinikum Bernau Herzzentrum Brandenburg","lat":52.683177,"lon":13.582661,"city":"Bernau bei Berlin"},{"id":249,"name":"Klinikum Dahme-Spreewald GmbH","lat":51.944204,"lon":13.874777,"city":"Lübben (Spreewald)"},{"id":667,"name":"Klinikum Dahme-Spreewald GmbH","lat":52.30347,"lon":13.627804,"city":"Königs Wusterhausen"},{"id":471,"name":"Klinikum Niederlausitz GmbH","lat":51.49854,"lon":13.789126,"city":"Lauchhammer"},{"id":189,"name":"KMG Klinikum Luckenwalde","lat":53.148881,"lon":12.169212,"city":"Luckenwalde"},{"id":489,"name":"KMG Klinikum Mitte GmbH","lat":51.16215,"lon":11.121934,"city":"Kyritz"},{"id":21,"name":"Krankenhaus Spremberg","lat":51.565215,"lon":14.373924,"city":"Spremberg (NL)"},{"id":1181,"name":"Krankenhaus Spremberg","lat":51.565215,"lon":14.373924,"city":"Spremberg (NL)"},{"id":606,"name":"Kreiskrankenhaus Prignitz gGmbH","lat":53.073481,"lon":11.873782,"city":"Perleberg"},{"id":113,"name":"MEDIAN Klinik Grünheide Fach-KH für neurolog. Früreha. Phase B","lat":52.423944,"lon":13.813195,"city":"Grünheide (Mark)"},{"id":762,"name":"Oberhavel Klinik Gransee GmbH","lat":52.998951,"lon":13.144217,"city":"Gransee"},{"id":647,"name":"Oberhavel Kliniken GmbH Krankenhaus","lat":52.655771,"lon":13.190925,"city":"Hennigsdorf"},{"id":1180,"name":"Städtisches Krankenhaus Eisenhüttenstadt GmbH","lat":52.141203,"lon":14.625088,"city":"Eisenhüttenstadt"},{"id":218,"name":"Universitätsklinikum Brandenburg an der Havel GmbH","lat":52.413799,"lon":12.546073,"city":"Brandenburg an der Havel"},{"id":612,"name":"VAMED Klinik Hohenstücken KH","lat":52.433494,"lon":12.512718,"city":"Brandenburg an der Havel"}]
