[{"id":699,"name":"Arona Klinik für Altersmedizin","lat":52.515539,"lon":13.564016,"city":"Berlin"},{"id":416,"name":"Augenklinik Berlin-Marzahn","lat":52.514267,"lon":13.56758,"city":"Berlin"},{"id":417,"name":"BG Klinikum Unfallkrankenhaus Berlin gGmbH","lat":52.519137,"lon":13.56851,"city":"Berlin"},{"id":1162,"name":"Bundeswehrkrankenhaus Berlin","lat":52.535657,"lon":13.371347,"city":"Berlin"},{"id":82,"name":"Charité Universitätsmedizin Berlin","lat":52.542152,"lon":13.342863,"city":"Berlin"},{"id":670,"name":"Charité Universitätsmedizin Berlin","lat":52.525759,"lon":13.377887,"city":"Berlin"},{"id":985,"name":"Charité Universitätsmedizin Berlin","lat":52.442042,"lon":13.320817,"city":"Berlin"},{"id":237,"name":"Dominikus-Krankenhaus Berlin","lat":52.624691,"lon":13.293987,"city":"Berlin"},{"id":1173,"name":"DRK Kliniken Berlin Köpenick","lat":52.440111,"lon":13.595727,"city":"Berlin"},{"id":1163,"name":"DRK Kliniken Berlin Mitte","lat":52.557363,"lon":13.375228,"city":"Berlin"},{"id":1166,"name":"DRK Kliniken Berlin Westend","lat":52.520262,"lon":13.277289,"city":"Berlin"},{"id":380,"name":"Evangelisches Geriatriezentrum Berlin","lat":52.554517,"lon":13.36379,"city":"Berlin"},{"id":1169,"name":"Evangelisches Krankenhaus Hubertus","lat":52.430873,"lon":13.219448,"city":"Berlin"},{"id":983,"name":"Evangelisches Krankenhaus Königin Elisabeth Herzberge gGmbH","lat":52.527417,"lon":13.509509,"city":"Berlin"},{"id":1174,"name":"Evangelisches Krankenhaus Königin Elisabeth Herzberge gGmbH","lat":52.527417,"lon":13.509509,"city":"Berlin"},{"id":1175,"name":"Evangelisches Krankenhaus Königin Elisabeth Herzberge gGmbH","lat":52.527417,"lon":13.509509,"city":"Berlin"},{"id":1168,"name":"Gemeinschaftskrankenhaus Havelhöhe gGmbH","lat":52.462145,"lon":13.16295,"city":"Berlin"},{"id":558,"name":"Heiligenfeld Klinik Berlin","lat":50.187491,"lon":10.07037,"city":"Berlin"},{"id":658,"name":"Heiligenfeld Klinik Berlin","lat":52.51781,"lon":13.569465,"city":"Berlin"},{"id":263,"name":"Helios Klinikum Berlin-Buch","lat":51.126057,"lon":7.8975,"city":"Berlin"},{"id":462,"name":"Helios Klinikum Berlin-Buch","lat":52.631205,"lon":13.508294,"city":"Berlin"},{"id":569,"name":"Helios Klinikum Berlin-Buch","lat":51.443193,"lon":10.566641,"city":"Berlin"},{"id":1170,"name":"Helios Klinikum Emil von Behring","lat":52.422707,"lon":13.254181,"city":"Berlin"},{"id":650,"name":"Immanuel-Krankenhaus Berlin","lat":52.419485,"lon":13.164002,"city":"Berlin"},{"id":1165,"name":"Immanuel-Krankenhaus Berlin","lat":52.419485,"lon":13.164002,"city":"Berlin"},{"id":1164,"name":"Jüdisches Krankenhaus Berlin","lat":52.555412,"lon":13.370363,"city":"Berlin"},{"id":889,"name":"Klinik für Minimal Invasive Chirurgie","lat":52.430834,"lon":13.218037,"city":"Berlin"},{"id":49,"name":"Klinik Schöneberg","lat":52.498799,"lon":13.344552,"city":"Berlin"},{"id":840,"name":"Klinik Schöneberg","lat":52.498638,"lon":13.344656,"city":"Berlin"},{"id":302,"name":"Kliniken im Theodor-Wenzel-Werk","lat":52.422634,"lon":13.205208,"city":"Berlin"},{"id":1171,"name":"Kliniken im Theodor-Wenzel-Werk","lat":52.422634,"lon":13.205208,"city":"Berlin"},{"id":1172,"name":"Krankenhaus Waldfriede","lat":52.4445,"lon":13.239866,"city":"Berlin"},{"id":532,"name":"Malteser-Krankenhaus Berlin-Charlottenburg","lat":52.508818,"lon":13.251889,"city":"Berlin"},{"id":387,"name":"Paulinenkrankenhaus","lat":52.507776,"lon":13.233533,"city":"Berlin"},{"id":230,"name":"Sana Klinikum Lichtenberg","lat":52.513302,"lon":13.49543,"city":"Berlin"},{"id":349,"name":"Sankt Gertrauden-Krankenhaus","lat":52.480347,"lon":13.317208,"city":"Berlin"},{"id":1167,"name":"Schloßpark-Klinik","lat":52.522281,"lon":13.289724,"city":"Berlin"},{"id":435,"name":"St. Joseph-Krankenhaus Berlin Tempelhof","lat":52.478104,"lon":13.372956,"city":"Berlin"},{"id":694,"name":"St. Marien-Krankenhaus Berlin","lat":52.424375,"lon":13.349194,"city":"Berlin"},{"id":384,"name":"Vivantes Ida-Wolff-Krankenhaus GmbH","lat":52.434341,"lon":13.45787,"city":"Berlin"},{"id":84,"name":"Vivantes Komfortklinik GmbH","lat":52.589737,"lon":13.307798,"city":"Berlin"},{"id":180,"name":"Vivantes Komfortklinik GmbH","lat":52.462077,"lon":13.34655,"city":"Berlin"},{"id":421,"name":"Vivantes Komfortklinik GmbH","lat":52.506705,"lon":13.593863,"city":"Berlin"},{"id":557,"name":"Vivantes Komfortklinik GmbH","lat":52.493956,"lon":13.408594,"city":"Berlin"},{"id":614,"name":"Vivantes Komfortklinik GmbH","lat":52.549617,"lon":13.20696,"city":"Berlin"},{"id":236,"name":"Vivantes Netzwerk für Gesundheit GmbH","lat":52.459015,"lon":13.390216,"city":"Berlin"},{"id":385,"name":"Vivantes Netzwerk für Gesundheit GmbH","lat":52.437256,"lon":13.458879,"city":"Berlin"},{"id":713,"name":"Vivantes Netzwerk für Gesundheit GmbH","lat":52.525532,"lon":13.439477,"city":"Berlin"}]
