[{"id":1086,"name":"AGAPLESION DIAKONIE KLINIKEN KASSEL","lat":51.314195,"lon":9.462728,"city":"Kassel"},{"id":1078,"name":"AGAPLESION Evangelisches Krankenhaus Mittelhessen","lat":50.59246,"lon":8.648853,"city":"Gießen"},{"id":502,"name":"ASKLEPIOS Klinik Lich","lat":48.862901,"lon":13.067497,"city":"Lich"},{"id":469,"name":"ASKLEPIOS Klinik Seligenstadt","lat":50.041855,"lon":8.96449,"city":"Seligenstadt"},{"id":1076,"name":"ASKLEPIOS Klinik Seligenstadt","lat":50.041855,"lon":8.96449,"city":"Seligenstadt"},{"id":88,"name":"ASKLEPIOS Kliniken Langen-Seligenstadt GmbH","lat":49.9984,"lon":8.684008,"city":"Langen"},{"id":518,"name":"ASKLEPIOS Neurologische Klinik Falkenstein","lat":50.191235,"lon":8.483109,"city":"Königstein"},{"id":165,"name":"ASKLEPIOS Paulinen Klinik Wiesbaden","lat":50.07183,"lon":8.226977,"city":"Wiesbaden"},{"id":1074,"name":"ASKLEPIOS Schlossberg Klinik Bad König","lat":49.745117,"lon":9.00504,"city":"Bad König"},{"id":415,"name":"ASKLEPIOS Stadtklinik Bad Wildungen","lat":51.11719,"lon":9.114205,"city":"Bad Wildungen"},{"id":1077,"name":"Bergman Clinics Mathilden-Hospital","lat":50.287148,"lon":9.113602,"city":"Büdingen"},{"id":87,"name":"Berufsgenossenschaftliche Unfallklinik","lat":50.144787,"lon":8.708794,"city":"Frankfurt"},{"id":83,"name":"Bürgerhospital und Clementine Kinderhospital","lat":50.13041,"lon":8.686287,"city":"Frankfurt"},{"id":1066,"name":"DGD Krankenhaus Sachsenhausen","lat":50.106318,"lon":8.683632,"city":"Frankfurt"},{"id":825,"name":"Diakonie-Krankenhaus Wehrda","lat":50.829184,"lon":8.76144,"city":"Marburg"},{"id":1072,"name":"DKD HELIOS Klinik Wiesbaden","lat":50.086642,"lon":8.269933,"city":"Wiesbaden"},{"id":1080,"name":"DRK Krankenhaus Biedenkopf","lat":50.913484,"lon":8.523066,"city":"Biedenkopf"},{"id":253,"name":"Elisabeth-Krankenhaus Kassel GmbH","lat":51.30996,"lon":9.491916,"city":"Kassel"},{"id":887,"name":"Entgiftungsstation im Wolfgang-Winckler-Haus","lat":50.17119,"lon":8.39094,"city":"Kelkheim"},{"id":442,"name":"Fachklinik für Lungenerkrankungen","lat":51.423178,"lon":9.477148,"city":"Immenhausen"},{"id":85,"name":"Frankfurter Rotkreuz-Kliniken","lat":50.119836,"lon":8.688251,"city":"Frankfurt"},{"id":969,"name":"Frankfurter Rotkreuz-Kliniken","lat":50.117144,"lon":8.697921,"city":"Frankfurt"},{"id":60,"name":"Gertrudis-Klinik Parkinson-Zentrum GmbH","lat":50.533071,"lon":8.308411,"city":"Leun"},{"id":140,"name":"GPR Klinikum Rüsselsheim","lat":49.982861,"lon":8.42518,"city":"Rüsselsheim"},{"id":1088,"name":"Hardtwaldklinik I","lat":51.061829,"lon":9.173084,"city":"Bad Zwesten"},{"id":812,"name":"Hardtwaldklinik II Akutbereich","lat":51.063141,"lon":9.168588,"city":"Bad Zwesten"},{"id":420,"name":"Helios Dr. Horst Schmidt Kliniken Wiesbaden","lat":50.086642,"lon":8.269933,"city":"Wiesbaden"},{"id":503,"name":"Helios Dr. Horst Schmidt Kliniken Wiesbaden","lat":50.065178,"lon":8.191743,"city":"Wiesbaden"},{"id":103,"name":"Helios Klinik Idstein","lat":50.208746,"lon":8.263859,"city":"Idstein"},{"id":231,"name":"Helios Kliniken Kassel","lat":51.311407,"lon":9.454682,"city":"Kassel"},{"id":514,"name":"Helios St. Elisabeth Klinik Hünfeld","lat":51.489926,"lon":6.761028,"city":"Hünfeld"},{"id":644,"name":"Helios St. Elisabeth Klinik Hünfeld","lat":48.951836,"lon":11.394936,"city":"Hünfeld"},{"id":773,"name":"Herz-Jesu-Krankenhaus Fulda","lat":50.563307,"lon":9.673301,"city":"Fulda"},{"id":681,"name":"Hessenklinik Stadtkrankenhaus Korbach gGmbH","lat":51.267375,"lon":8.871009,"city":"Korbach"},{"id":374,"name":"Hochtaunus-Kliniken gGmbH","lat":50.343134,"lon":8.530697,"city":"Usingen"},{"id":487,"name":"Hochtaunus-Kliniken gGmbH","lat":50.183953,"lon":8.462241,"city":"Königstein"},{"id":948,"name":"Hochtaunus-Kliniken gGmbH","lat":50.212119,"lon":8.619035,"city":"Bad Homburg"},{"id":438,"name":"Hospital zum Heiligen Geist","lat":51.132646,"lon":9.277427,"city":"Fritzlar"},{"id":1067,"name":"Hospital zum Heiligen Geist","lat":50.110329,"lon":8.692876,"city":"Frankfurt"},{"id":809,"name":"Kaiserin-Auguste-Victoria-Krankenhaus","lat":50.604168,"lon":8.38467,"city":"Ehringshausen"},{"id":808,"name":"Kerckhoff-Klinik","lat":50.369706,"lon":8.742537,"city":"Bad Nauheim"},{"id":1071,"name":"Ketteler Krankenhaus","lat":50.094353,"lon":8.784612,"city":"Offenbach"},{"id":777,"name":"Klinik Dr. Frühauf","lat":50.091178,"lon":8.78892,"city":"Offenbach"},{"id":831,"name":"Klinik Dr. Steib","lat":50.184268,"lon":8.470772,"city":"Königstein"},{"id":229,"name":"Klinik Hohe Mark","lat":50.211335,"lon":8.530646,"city":"Oberursel"},{"id":943,"name":"Klinik- und Rehabilitationszentrum","lat":51.615501,"lon":9.590086,"city":"Wesertal"},{"id":96,"name":"Kliniken des Main-Taunus-Kreises GmbH","lat":50.150899,"lon":8.514578,"city":"Bad Soden"},{"id":405,"name":"Klinikum Darmstadt","lat":49.874401,"lon":8.646135,"city":"Darmstadt"},{"id":939,"name":"Klinikum Darmstadt","lat":49.853057,"lon":8.66234,"city":"Darmstadt"},{"id":962,"name":"Klinikum der Johannes Gutenberg-Universität Mainz","lat":49.992334,"lon":8.259579,"city":"Wiesbaden"},{"id":412,"name":"Klinikum Frankfurt Höchst","lat":50.108593,"lon":8.546463,"city":"Frankfurt"},{"id":774,"name":"Klinikum Fulda","lat":50.546761,"lon":9.706098,"city":"Fulda"},{"id":1073,"name":"Klinikum Hanau","lat":50.133449,"lon":8.923751,"city":"Hanau"},{"id":778,"name":"Klinikum Kassel","lat":51.379386,"lon":9.007926,"city":"Kassel"},{"id":1087,"name":"Klinikum Kassel","lat":51.327886,"lon":9.509022,"city":"Kassel"},{"id":761,"name":"Klinikum Wetzlar-Braunfels","lat":50.53869,"lon":8.530434,"city":"Wetzlar"},{"id":1089,"name":"Krankenhaus Bad Arolsen","lat":51.379386,"lon":9.007926,"city":"Bad Arolsen"},{"id":319,"name":"Krankenhaus Eichhof","lat":50.630398,"lon":9.391386,"city":"Lauterbach"},{"id":769,"name":"Krankenhaus Eichhof","lat":50.629637,"lon":9.390326,"city":"Lauterbach"},{"id":1068,"name":"Krankenhaus Nordwest","lat":50.150886,"lon":8.617688,"city":"Frankfurt"},{"id":630,"name":"Kreisklinik Groß-Gerau","lat":49.913073,"lon":8.475041,"city":"Groß-Gerau"},{"id":318,"name":"Kreiskliniken Kassel","lat":51.496006,"lon":9.369413,"city":"Hofgeismar"},{"id":903,"name":"Kreiskliniken Kassel","lat":51.32055,"lon":9.190788,"city":"Wolfhagen"},{"id":314,"name":"Kreiskrankenhaus des Vogelsbergkreises in Alsfeld","lat":50.763027,"lon":9.268783,"city":"Alsfeld"},{"id":1075,"name":"Kreiskrankenhaus Erbach","lat":49.651665,"lon":9.000675,"city":"Erbach"},{"id":813,"name":"Kreiskrankenhaus Frankenberg","lat":51.061805,"lon":8.791967,"city":"Frankenberg"},{"id":664,"name":"Kreiskrankenhaus Rotenburg a. d. Fulda","lat":50.995735,"lon":9.720725,"city":"Rotenburg"},{"id":1085,"name":"Kreiskrankenhaus Schotten","lat":50.506599,"lon":9.104182,"city":"Schotten"},{"id":375,"name":"Kreiskrankenhaus Weilburg","lat":50.485364,"lon":8.252695,"city":"Weilburg"},{"id":776,"name":"Lahn-Dill-Kliniken","lat":50.74654,"lon":8.285408,"city":"Dillenburg"},{"id":536,"name":"Main-Kinzig-Kliniken gGmbH","lat":50.20664,"lon":9.181324,"city":"Gelnhausen"},{"id":819,"name":"Main-Kinzig-Kliniken gGmbH","lat":50.354178,"lon":9.527395,"city":"Schlüchtern"},{"id":371,"name":"Marienkrankenhaus Kassel","lat":51.328185,"lon":9.480655,"city":"Kassel"},{"id":199,"name":"MEDIAN Klinik NRZ Wiesbaden","lat":50.091484,"lon":8.266239,"city":"Wiesbaden"},{"id":459,"name":"MEDIAN Klinik NRZ Wiesbaden","lat":50.389821,"lon":10.566255,"city":"Wiesbaden"},{"id":677,"name":"MEDIAN Klinik NRZ Wiesbaden","lat":52.097141,"lon":8.750287,"city":"Wiesbaden"},{"id":909,"name":"MEDIAN Klinik NRZ Wiesbaden","lat":52.086236,"lon":11.637514,"city":"Wiesbaden"},{"id":176,"name":"MEDIAN Klinik Odenwald - Fachkrankenhaus","lat":49.830906,"lon":9.015521,"city":"Breuberg"},{"id":121,"name":"Medical Park Bad Camberg","lat":50.297483,"lon":8.282825,"city":"Bad Camberg"},{"id":238,"name":"Migräne- und Kopfschmerzklinik Königstein","lat":50.186542,"lon":8.456116,"city":"Königstein"},{"id":106,"name":"Privatklinik Dr. Amelung GmbH","lat":50.189453,"lon":8.468834,"city":"Königstein"},{"id":101,"name":"Privatkrankenanstalt Wiesbaden","lat":49.461705,"lon":12.412038,"city":"Wiesbaden"},{"id":413,"name":"Sana Klinikum Offenbach","lat":52.811386,"lon":13.035644,"city":"Offenbach"},{"id":86,"name":"Sankt Katharinen Krankenhaus","lat":50.136094,"lon":8.710851,"city":"Frankfurt"},{"id":1090,"name":"Schön Klinik Bad Arolsen","lat":51.379902,"lon":9.027485,"city":"Bad Arolsen"},{"id":42,"name":"Schön Klinik Lorsch","lat":51.377627,"lon":9.020707,"city":"Lorsch"},{"id":396,"name":"Schön Klinik Lorsch","lat":47.947762,"lon":12.188204,"city":"Lorsch"},{"id":578,"name":"Schön Klinik Lorsch","lat":48.104045,"lon":11.567069,"city":"Lorsch"},{"id":735,"name":"Schön Klinik Lorsch","lat":47.859522,"lon":12.362533,"city":"Lorsch"},{"id":737,"name":"Schön Klinik Lorsch","lat":50.111099,"lon":10.992458,"city":"Lorsch"},{"id":739,"name":"Schön Klinik Lorsch","lat":49.652203,"lon":8.562703,"city":"Lorsch"},{"id":1069,"name":"St. Elisabethen-Krankenhaus","lat":50.126568,"lon":8.638472,"city":"Frankfurt"},{"id":775,"name":"St. Josefs Krankenhaus Balserische Stiftung","lat":50.578682,"lon":8.668032,"city":"Gießen"},{"id":506,"name":"St. Josefs-Hospital Rheingau","lat":49.983175,"lon":7.926406,"city":"Rüdesheim"},{"id":257,"name":"St. Josefs-Hospital Wiesbaden","lat":50.076441,"lon":8.254454,"city":"Wiesbaden"},{"id":804,"name":"St. Marien Krankenhaus Lampertheim","lat":49.597042,"lon":8.467331,"city":"Lampertheim"},{"id":454,"name":"St. Vinzenz-Krankenhaus Hanau","lat":50.135143,"lon":8.912213,"city":"Hanau"},{"id":1070,"name":"Universitätsklinikum Frankfurt","lat":50.093681,"lon":8.655874,"city":"Frankfurt"},{"id":1081,"name":"Universitätsklinikum Gießen und Marburg GmbH","lat":50.816545,"lon":8.806427,"city":"Marburg"},{"id":1082,"name":"Universitätsklinikum Gießen und Marburg GmbH","lat":50.816545,"lon":8.806427,"city":"Marburg"},{"id":1083,"name":"Universitätsklinikum Gießen und Marburg GmbH","lat":50.816545,"lon":8.806427,"city":"Marburg"},{"id":1084,"name":"Universitätsklinikum Gießen und Marburg GmbH","lat":50.816545,"lon":8.806427,"city":"Marburg"},{"id":163,"name":"Vitos Gießen-Marburg gGmbH","lat":50.577393,"lon":8.701144,"city":"Gießen"},{"id":1079,"name":"Vitos Klinikum Herborn","lat":50.671936,"lon":8.301378,"city":"Herborn"}]
