[{"id":1086,"name":"AGAPLESION DIAKONIE KLINIKEN KASSEL","lat":51.314195,"lon":9.462728,"city":"Kassel"},{"id":1663,"name":"Agaplesion Elisabethenstift","lat":49.873903,"lon":8.665206,"city":"Darmstadt"},{"id":1078,"name":"AGAPLESION Evangelisches Krankenhaus Mittelhessen","lat":50.59246,"lon":8.648853,"city":"Gießen"},{"id":1682,"name":"Agaplesion Markus Krankenhaus","lat":50.13562,"lon":8.647435,"city":"Frankfurt am Main"},{"id":502,"name":"ASKLEPIOS Klinik Lich","lat":50.52502,"lon":8.805594,"city":"Lich"},{"id":469,"name":"ASKLEPIOS Klinik Seligenstadt","lat":50.041855,"lon":8.96449,"city":"Seligenstadt"},{"id":88,"name":"ASKLEPIOS Kliniken Langen-Seligenstadt GmbH","lat":49.9984,"lon":8.684008,"city":"Langen"},{"id":1680,"name":"Asklepios Klinikum Schwalmstadt","lat":50.922145,"lon":9.256319,"city":""},{"id":518,"name":"ASKLEPIOS Neurologische Klinik Falkenstein","lat":50.191235,"lon":8.483109,"city":"Königstein"},{"id":165,"name":"ASKLEPIOS Paulinen Klinik Wiesbaden","lat":50.07183,"lon":8.226977,"city":"Wiesbaden"},{"id":1074,"name":"ASKLEPIOS Schlossberg Klinik Bad König","lat":49.745117,"lon":9.00504,"city":"Bad König"},{"id":415,"name":"ASKLEPIOS Stadtklinik Bad Wildungen","lat":51.11719,"lon":9.114205,"city":"Bad Wildungen"},{"id":1643,"name":"Atos Klinik Wiesbaden","lat":50.048821,"lon":8.214471,"city":"Wiesbaden"},{"id":1640,"name":"ATOS MVZ Wetzlar","lat":50.553453,"lon":8.499509,"city":"Wetzlar"},{"id":1669,"name":"BalzerbornKliniken","lat":51.262509,"lon":9.96724,"city":"Bad Sooden-Allendorf"},{"id":1666,"name":"Batzenmühle","lat":51.003817,"lon":9.352617,"city":"Homberg (Efze)"},{"id":1652,"name":"BDH Klinik Braunfels","lat":50.514918,"lon":8.394494,"city":""},{"id":1077,"name":"Bergman Clinics Mathilden-Hospital","lat":50.287148,"lon":9.113602,"city":"Büdingen"},{"id":87,"name":"Berufsgenossenschaftliche Unfallklinik","lat":50.144787,"lon":8.708794,"city":"Frankfurt"},{"id":1646,"name":"Bethanienkrankenhaus","lat":50.129287,"lon":8.705925,"city":"Frankfurt am Main"},{"id":1659,"name":"Bürgerhospital Friedberg","lat":50.334826,"lon":8.751371,"city":"Friedberg (Hessen)"},{"id":83,"name":"Bürgerhospital und Clementine Kinderhospital","lat":50.13041,"lon":8.686287,"city":"Frankfurt"},{"id":1066,"name":"DGD Krankenhaus Sachsenhausen","lat":50.106318,"lon":8.683632,"city":"Frankfurt"},{"id":825,"name":"Diakonie-Krankenhaus Wehrda","lat":50.829184,"lon":8.76144,"city":"Marburg"},{"id":1072,"name":"DKD HELIOS Klinik Wiesbaden","lat":50.086642,"lon":8.269933,"city":"Wiesbaden"},{"id":1676,"name":"DRK Dorndiel/Klein-Umstadt","lat":49.866011,"lon":9.016427,"city":"Groß-Umstadt"},{"id":1080,"name":"DRK Krankenhaus Biedenkopf","lat":50.913484,"lon":8.523066,"city":"Biedenkopf"},{"id":1656,"name":"Eleonoren-Klinik","lat":49.7181,"lon":8.778496,"city":"Lindenfels"},{"id":253,"name":"Elisabeth-Krankenhaus Kassel GmbH","lat":51.30996,"lon":9.491916,"city":"Kassel"},{"id":887,"name":"Entgiftungsstation im Wolfgang-Winckler-Haus","lat":50.17119,"lon":8.39094,"city":"Kelkheim"},{"id":1684,"name":"Evangelisches Krankenhaus Gesundbrunnen gGmbH","lat":51.504522,"lon":9.410072,"city":"Hofgeismar"},{"id":442,"name":"Fachklinik für Lungenerkrankungen","lat":51.423178,"lon":9.477148,"city":"Immenhausen"},{"id":1664,"name":"Fachklinik Neue Rhön","lat":50.687019,"lon":9.688173,"city":"Burghaun"},{"id":1679,"name":"Fachklink Fürstenwald","lat":51.382541,"lon":9.368653,"city":""},{"id":1700,"name":"Falkeneck","lat":50.520264,"lon":8.381644,"city":"Braunfels"},{"id":1692,"name":"Flughafen Medical Center","lat":50.04922,"lon":8.567108,"city":""},{"id":85,"name":"Frankfurter Rotkreuz-Kliniken","lat":50.119836,"lon":8.688251,"city":"Frankfurt"},{"id":60,"name":"Gertrudis-Klinik Parkinson-Zentrum GmbH","lat":50.533071,"lon":8.308411,"city":"Leun"},{"id":140,"name":"GPR Klinikum Rüsselsheim","lat":49.982861,"lon":8.42518,"city":"Rüsselsheim"},{"id":1671,"name":"Habichtswald-Klinik","lat":51.31355,"lon":9.424746,"city":"Kassel"},{"id":1088,"name":"Hardtwaldklinik I","lat":51.061829,"lon":9.173084,"city":"Bad Zwesten"},{"id":812,"name":"Hardtwaldklinik II Akutbereich","lat":51.063141,"lon":9.168588,"city":"Bad Zwesten"},{"id":1708,"name":"Heilig-Geist Hospital Bensheim","lat":49.67843,"lon":8.620267,"city":""},{"id":420,"name":"Helios Dr. Horst Schmidt Kliniken Wiesbaden","lat":50.086642,"lon":8.269933,"city":"Wiesbaden"},{"id":103,"name":"Helios Klinik Idstein","lat":50.208746,"lon":8.263859,"city":"Idstein"},{"id":231,"name":"Helios Kliniken Kassel","lat":51.311407,"lon":9.454682,"city":"Kassel"},{"id":1678,"name":"Helios Kliniken Kassel, Standort Kaufungen","lat":51.283127,"lon":9.649422,"city":"Kaufungen"},{"id":514,"name":"Helios St. Elisabeth Klinik Hünfeld","lat":50.662803,"lon":9.766583,"city":"Hünfeld"},{"id":1681,"name":"Hephata Klinik","lat":50.909999,"lon":9.168064,"city":""},{"id":773,"name":"Herz-Jesu-Krankenhaus Fulda","lat":50.563307,"lon":9.673301,"city":"Fulda"},{"id":1665,"name":"Herz-Kreislauf-Zentrum","lat":51.004486,"lon":9.737523,"city":"Rotenburg an der Fulda"},{"id":681,"name":"Hessenklinik Stadtkrankenhaus Korbach gGmbH","lat":51.267375,"lon":8.871009,"city":"Korbach"},{"id":374,"name":"Hochtaunus-Kliniken gGmbH","lat":50.343134,"lon":8.530697,"city":"Usingen"},{"id":1686,"name":"Hochwaldkrankenhaus","lat":50.357101,"lon":8.729659,"city":"Bad Nauheim"},{"id":1704,"name":"Hohenfeldklinik","lat":50.295588,"lon":8.27582,"city":"Bad Camberg"},{"id":438,"name":"Hospital zum Heiligen Geist","lat":51.132646,"lon":9.277427,"city":"Fritzlar"},{"id":1650,"name":"Instituts- und Klinikgebäude Zahnmedizin","lat":50.569182,"lon":8.668604,"city":"Gießen"},{"id":809,"name":"Kaiserin-Auguste-Victoria-Krankenhaus","lat":50.604168,"lon":8.38467,"city":"Ehringshausen"},{"id":808,"name":"Kerckhoff-Klinik","lat":50.369706,"lon":8.742537,"city":"Bad Nauheim"},{"id":1071,"name":"Ketteler Krankenhaus","lat":50.094353,"lon":8.784612,"city":"Offenbach"},{"id":1641,"name":"KJP Tokmak - Kinder- und Jugendpsychiatrie und -psychotherapie","lat":50.539601,"lon":9.714051,"city":"Künzell"},{"id":1672,"name":"Klinik am Kurpark","lat":51.109228,"lon":9.07925,"city":"Bad Wildungen"},{"id":777,"name":"Klinik Dr. Frühauf","lat":50.091178,"lon":8.78892,"city":"Offenbach"},{"id":831,"name":"Klinik Dr. Steib","lat":50.184268,"lon":8.470772,"city":"Königstein"},{"id":1647,"name":"Klinik für Psychiatrie & Psychotherapie","lat":50.33437,"lon":8.742188,"city":"Friedberg (Hessen)"},{"id":1653,"name":"Klinik für Psychiatrie und Psychotherapie Vitos - Standort Marburg","lat":50.791738,"lon":8.771976,"city":"Marburg"},{"id":229,"name":"Klinik Hohe Mark","lat":50.211335,"lon":8.530646,"city":"Oberursel"},{"id":1677,"name":"Klinik Kurhessen","lat":51.270439,"lon":9.96084,"city":"Bad Sooden-Allendorf"},{"id":1702,"name":"Klinik Königstein der KVB","lat":50.173217,"lon":8.475741,"city":"Königstein im Taunus"},{"id":1662,"name":"Klinik Rabenstein","lat":50.419317,"lon":8.98598,"city":"Nidda"},{"id":1693,"name":"Klinik Schloss Falkenhof","lat":49.684492,"lon":8.640267,"city":"Bensheim"},{"id":1715,"name":"Klinik Sonnenblick","lat":50.798389,"lon":8.801894,"city":"Marburg"},{"id":1670,"name":"Klinik Werraland","lat":51.265808,"lon":9.964135,"city":"Bad Sooden-Allendorf"},{"id":943,"name":"Klinik- und Rehabilitationszentrum","lat":51.615501,"lon":9.590086,"city":"Wesertal"},{"id":96,"name":"Kliniken des Main-Taunus-Kreises GmbH","lat":50.150899,"lon":8.514578,"city":"Bad Soden"},{"id":1698,"name":"Klinikum Bad Hersfeld","lat":50.876239,"lon":9.71465,"city":""},{"id":405,"name":"Klinikum Darmstadt","lat":49.874401,"lon":8.646135,"city":"Darmstadt"},{"id":962,"name":"Klinikum der Johannes Gutenberg-Universität Mainz","lat":49.992334,"lon":8.259579,"city":"Wiesbaden"},{"id":412,"name":"Klinikum Frankfurt Höchst","lat":50.108593,"lon":8.546463,"city":"Frankfurt"},{"id":774,"name":"Klinikum Fulda","lat":50.546761,"lon":9.706098,"city":"Fulda"},{"id":1073,"name":"Klinikum Hanau","lat":50.133449,"lon":8.923751,"city":"Hanau"},{"id":778,"name":"Klinikum Kassel","lat":51.379386,"lon":9.007926,"city":"Kassel"},{"id":1674,"name":"Klinikum Werra-Meißner Standort Eschwege","lat":51.183009,"lon":10.051139,"city":""},{"id":1688,"name":"Klinikum Werra-Meißner Standort Witzenhausen","lat":51.343228,"lon":9.86058,"city":""},{"id":761,"name":"Klinikum Wetzlar-Braunfels","lat":50.53869,"lon":8.530434,"city":"Wetzlar"},{"id":1634,"name":"Knappschaftsklinik","lat":50.288777,"lon":9.357833,"city":"Bad Soden-Salmünster"},{"id":1089,"name":"Krankenhaus Bad Arolsen","lat":51.379386,"lon":9.007926,"city":"Bad Arolsen"},{"id":319,"name":"Krankenhaus Eichhof","lat":50.630398,"lon":9.391386,"city":"Lauterbach"},{"id":1691,"name":"Krankenhaus Hofheim","lat":50.090328,"lon":8.445668,"city":"Hofheim am Taunus"},{"id":1068,"name":"Krankenhaus Nordwest","lat":50.150886,"lon":8.617688,"city":"Frankfurt"},{"id":1661,"name":"Krankenhaus Weilburg - Klinik für Neurologie","lat":50.424139,"lon":8.390448,"city":"Weilmünster"},{"id":1636,"name":"Krankenhausapotheke DRK Eichenzell","lat":50.493147,"lon":9.699519,"city":"Eichenzell"},{"id":630,"name":"Kreisklinik Groß-Gerau","lat":49.913073,"lon":8.475041,"city":"Groß-Gerau"},{"id":1707,"name":"Kreisklinik Groß-Umstadt","lat":49.867307,"lon":8.935929,"city":""},{"id":318,"name":"Kreiskliniken Kassel","lat":51.496006,"lon":9.369413,"city":"Hofgeismar"},{"id":314,"name":"Kreiskrankenhaus des Vogelsbergkreises in Alsfeld","lat":50.763027,"lon":9.268783,"city":"Alsfeld"},{"id":1075,"name":"Kreiskrankenhaus Erbach","lat":49.651665,"lon":9.000675,"city":"Erbach"},{"id":813,"name":"Kreiskrankenhaus Frankenberg","lat":51.061805,"lon":8.791967,"city":"Frankenberg"},{"id":1696,"name":"Kreiskrankenhaus Heppenheim","lat":49.62904,"lon":8.62521,"city":""},{"id":664,"name":"Kreiskrankenhaus Rotenburg a. d. Fulda","lat":50.995735,"lon":9.720725,"city":"Rotenburg"},{"id":1085,"name":"Kreiskrankenhaus Schotten","lat":50.506599,"lon":9.104182,"city":"Schotten"},{"id":375,"name":"Kreiskrankenhaus Weilburg","lat":50.485364,"lon":8.252695,"city":"Weilburg"},{"id":776,"name":"Lahn-Dill-Kliniken","lat":50.74654,"lon":8.285408,"city":"Dillenburg"},{"id":1687,"name":"Lebensraum Gombeth","lat":51.062748,"lon":9.291281,"city":"Borken (Hessen)"},{"id":1660,"name":"Ludwig-Noll-Krankenhaus","lat":51.270891,"lon":9.4888,"city":"Kassel"},{"id":536,"name":"Main-Kinzig-Kliniken gGmbH","lat":50.20664,"lon":9.181324,"city":"Gelnhausen"},{"id":371,"name":"Marienkrankenhaus Kassel","lat":51.328185,"lon":9.480655,"city":"Kassel"},{"id":1703,"name":"MEDIAN Klinik Eschenburg","lat":50.794244,"lon":8.321105,"city":"Eschenburg"},{"id":199,"name":"MEDIAN Klinik NRZ Wiesbaden","lat":50.091484,"lon":8.266239,"city":"Wiesbaden"},{"id":176,"name":"MEDIAN Klinik Odenwald - Fachkrankenhaus","lat":49.830906,"lon":9.015521,"city":"Breuberg"},{"id":121,"name":"Medical Park Bad Camberg","lat":50.297483,"lon":8.282825,"city":"Bad Camberg"},{"id":1655,"name":"MediClin Reha-Zentrum Bad Orb","lat":50.216027,"lon":9.353183,"city":""},{"id":238,"name":"Migräne- und Kopfschmerzklinik Königstein","lat":50.186542,"lon":8.456116,"city":"Königstein"},{"id":1685,"name":"Orthopädische Klinik","lat":51.211994,"lon":9.707241,"city":"Hessisch Lichtenau"},{"id":1689,"name":"Otto-Fricke-Krankenhaus","lat":50.134864,"lon":8.060454,"city":""},{"id":1711,"name":"Paracelsus-Elena-Klinik","lat":51.330633,"lon":9.422655,"city":"Kassel"},{"id":1649,"name":"Parkklinik Schlangenbad","lat":50.093449,"lon":8.098392,"city":"Schlangenbad"},{"id":1697,"name":"Paul-Ehrlich-Klinik","lat":50.230234,"lon":8.618701,"city":"Bad Homburg v.d. Höhe"},{"id":1651,"name":"Philippshospital","lat":49.820202,"lon":8.500754,"city":""},{"id":1645,"name":"Physiotherapie Susanne Herrmann","lat":50.802612,"lon":8.76853,"city":"Marburg"},{"id":106,"name":"Privatklinik Dr. Amelung GmbH","lat":50.189453,"lon":8.468834,"city":"Königstein"},{"id":101,"name":"Privatkrankenanstalt Wiesbaden","lat":49.461705,"lon":12.412038,"city":"Wiesbaden"},{"id":1714,"name":"Psychatrie","lat":50.574542,"lon":8.664644,"city":"Gießen"},{"id":1713,"name":"Psychiatrisches Zentrum für den Rheingau-Taunus-Kreis und Wiesbaden","lat":50.038834,"lon":8.059998,"city":"Eltville am Rhein"},{"id":1709,"name":"Reha-Kliniken Küppelsmühle","lat":50.212505,"lon":9.358716,"city":""},{"id":1705,"name":"Reha-Zentrum Bad Homburg - Klinik Wingertsberg","lat":50.232122,"lon":8.629369,"city":""},{"id":1695,"name":"Rhön Klinik Gersfeld","lat":50.456633,"lon":9.918563,"city":"Gersfeld"},{"id":1657,"name":"Sabine Frimmel Physiotherapie","lat":50.611067,"lon":9.366904,"city":"Lauterbach"},{"id":1675,"name":"Salus Klinik","lat":50.347122,"lon":8.773665,"city":"Friedberg (Hessen)"},{"id":1701,"name":"Salztal Klinik","lat":50.284071,"lon":9.358733,"city":"Bad Soden-Salmünster"},{"id":413,"name":"Sana Klinikum Offenbach","lat":50.094374,"lon":8.756329,"city":"Offenbach"},{"id":86,"name":"Sankt Katharinen Krankenhaus","lat":50.136094,"lon":8.710851,"city":"Frankfurt"},{"id":1090,"name":"Schön Klinik Bad Arolsen","lat":51.379902,"lon":9.027485,"city":"Bad Arolsen"},{"id":42,"name":"Schön Klinik Lorsch","lat":51.377627,"lon":9.020707,"city":"Lorsch"},{"id":1654,"name":"Spessart-Klinik","lat":50.226896,"lon":9.351664,"city":"Bad Orb"},{"id":1694,"name":"Spezialklinik Jugenheim","lat":49.753021,"lon":8.63787,"city":"Seeheim-Jugenheim"},{"id":1637,"name":"Sportklinik Bad Nauheim","lat":50.352637,"lon":8.743313,"city":"Bad Nauheim"},{"id":1069,"name":"St. Elisabethen-Krankenhaus","lat":50.126568,"lon":8.638472,"city":"Frankfurt"},{"id":775,"name":"St. Josefs Krankenhaus Balserische Stiftung","lat":50.578682,"lon":8.668032,"city":"Gießen"},{"id":506,"name":"St. Josefs-Hospital Rheingau","lat":49.983175,"lon":7.926406,"city":"Rüdesheim"},{"id":257,"name":"St. Josefs-Hospital Wiesbaden","lat":50.076441,"lon":8.254454,"city":"Wiesbaden"},{"id":1642,"name":"St. Marien","lat":50.290329,"lon":9.372057,"city":""},{"id":804,"name":"St. Marien Krankenhaus Lampertheim","lat":49.597042,"lon":8.467331,"city":"Lampertheim"},{"id":1658,"name":"St. Vincenz-Krankenhaus Limburg","lat":50.388065,"lon":8.051358,"city":""},{"id":454,"name":"St. Vinzenz-Krankenhaus Hanau","lat":50.135143,"lon":8.912213,"city":"Hanau"},{"id":1644,"name":"Tagespflege St Agnes","lat":50.037025,"lon":8.960237,"city":"Seligenstadt"},{"id":1070,"name":"Universitätsklinikum Frankfurt","lat":50.093681,"lon":8.655874,"city":"Frankfurt"},{"id":1081,"name":"Universitätsklinikum Gießen und Marburg GmbH","lat":50.816545,"lon":8.806427,"city":"Marburg"},{"id":1635,"name":"Vitalisklinik","lat":50.858568,"lon":9.693413,"city":"Bad Hersfeld"},{"id":163,"name":"Vitos Gießen-Marburg gGmbH","lat":50.577393,"lon":8.701144,"city":"Gießen"},{"id":1716,"name":"Vitos Haina","lat":51.029249,"lon":8.975962,"city":""},{"id":1639,"name":"Vitos Kinder- und Jugendambulanz und Tagesklinik für psychische Gesundheit Höchst im Odenwald","lat":49.79534,"lon":8.999715,"city":"Höchst im Odenwald"},{"id":1690,"name":"Vitos Kinder- und Jugendpsychiatrie Hanau","lat":50.144082,"lon":8.94132,"city":"Hanau"},{"id":1667,"name":"Vitos Kinder- und Jugendpsychiatrische Ambulanz und Tagesklinik Alsfeld","lat":50.745371,"lon":9.266266,"city":"Alsfeld"},{"id":1638,"name":"Vitos Kinder- und Jugendtagesklinik für psychische Gesundheit Kelkheim","lat":50.13202,"lon":8.453945,"city":""},{"id":1683,"name":"Vitos Klinik für forensische Psychiatrie Bad Emstal","lat":51.22674,"lon":9.2605,"city":"Bad Emstal"},{"id":1706,"name":"Vitos Klinik Hadamar","lat":50.450547,"lon":8.040402,"city":""},{"id":1673,"name":"Vitos Kliniken","lat":51.312275,"lon":9.430254,"city":"Kassel"},{"id":1712,"name":"Vitos Klinikum Bad Soden","lat":50.144865,"lon":8.509835,"city":""},{"id":1079,"name":"Vitos Klinikum Herborn","lat":50.671936,"lon":8.301378,"city":"Herborn"},{"id":1710,"name":"Vitos psychiatrische Tagesklinik Bad Wildungen","lat":51.123104,"lon":9.130838,"city":"Bad Wildungen"},{"id":1668,"name":"Vogelsbergklinik","lat":50.516471,"lon":9.311091,"city":"Grebenhain"},{"id":1648,"name":"Werner-Wicker-Klinik","lat":51.109246,"lon":9.08561,"city":""},{"id":1699,"name":"Zentrum für Psychische Gesundheit, Universitätsklinik Marburg","lat":50.818143,"lon":8.780859,"city":""}]
