[{"id":47,"name":"AMEOS Klinikum Ueckermünde","lat":53.740736,"lon":14.022098,"city":"Ueckermünde"},{"id":979,"name":"AMEOS Klinikum Ueckermünde","lat":52.004449,"lon":11.727853,"city":"Anklam"},{"id":198,"name":"ASKLEPIOS Klinik Parchim","lat":53.921728,"lon":10.699615,"city":"Parchim"},{"id":843,"name":"ASKLEPIOS Klinik Parchim","lat":53.429906,"lon":11.854077,"city":"Parchim"},{"id":528,"name":"ASKLEPIOS Klinik Pasewalk","lat":53.489456,"lon":13.986075,"city":"Pasewalk"},{"id":845,"name":"Bodden-Kliniken Ribnitz-Damgarten GmbH","lat":54.23643,"lon":12.44416,"city":"Ribnitz-Damgarten"},{"id":488,"name":"Dietrich-Bonhoeffer-Klinikum","lat":53.545559,"lon":13.294319,"city":"Neubrandenburg"},{"id":682,"name":"Dietrich-Bonhoeffer-Klinikum","lat":53.696573,"lon":13.252363,"city":"Altentreptow"},{"id":844,"name":"Dietrich-Bonhoeffer-Klinikum","lat":53.736646,"lon":12.755696,"city":"Altentreptow"},{"id":790,"name":"DRK Krankenhaus Grimmen GmbH","lat":54.120055,"lon":13.107434,"city":"Süderholz"},{"id":359,"name":"DRK-Krankenhaus Grevesmühlen gGmbH","lat":53.868473,"lon":11.183199,"city":"Grevesmühlen"},{"id":222,"name":"DRK-Krankenhaus Mecklenburg-Strelitz gGmbH","lat":53.380255,"lon":13.052535,"city":"Neustrelitz"},{"id":637,"name":"Evangelisches Krankenhaus Bethanien gGmbH","lat":54.078147,"lon":13.383448,"city":"Greifswald"},{"id":1189,"name":"Evangelisches Krankenhaus Bethanien gGmbH","lat":54.078147,"lon":13.383448,"city":"Greifswald"},{"id":352,"name":"Helios Hanseklinikum Stralsund GmbH","lat":54.300853,"lon":13.041293,"city":"Stralsund"},{"id":849,"name":"Helios Hanseklinikum Stralsund GmbH","lat":54.328494,"lon":13.081471,"city":"Stralsund"},{"id":1187,"name":"Helios Hanseklinikum Stralsund GmbH","lat":54.328494,"lon":13.081471,"city":"Stralsund"},{"id":300,"name":"Helios Klinik Leezen GmbH","lat":53.660322,"lon":11.490899,"city":"Leezen"},{"id":786,"name":"Helios Kliniken Schwerin","lat":53.651514,"lon":11.408547,"city":"Schwerin"},{"id":1186,"name":"Helios Kliniken Schwerin","lat":53.651514,"lon":11.408547,"city":"Schwerin"},{"id":1190,"name":"Klinikum Karlsburg","lat":53.970471,"lon":13.61008,"city":"Karlsburg"},{"id":934,"name":"Klinikum Südstadt Rostock","lat":54.07153,"lon":12.107871,"city":"Rostock"},{"id":842,"name":"KMG Klinik Boizenburg GmbH","lat":53.377332,"lon":10.7174,"city":"Boizenburg/Elbe"},{"id":428,"name":"KMG Klinikum Güstrow GmbH","lat":52.963622,"lon":11.951825,"city":"Güstrow"},{"id":433,"name":"KMG Klinikum Güstrow GmbH","lat":53.811089,"lon":12.199513,"city":"Güstrow"},{"id":399,"name":"Kreiskrankenhaus Demmin GmbH","lat":53.902032,"lon":13.041648,"city":"Demmin"},{"id":131,"name":"Kreiskrankenhaus Wolgast","lat":54.052351,"lon":13.765964,"city":"Wolgast"},{"id":576,"name":"LUP Klinikum Helene von Bülow gGmbH","lat":53.43425,"lon":11.181818,"city":"Hagenow"},{"id":899,"name":"LUP Klinikum Helene von Bülow gGmbH","lat":53.331664,"lon":11.498144,"city":"Hagenow"},{"id":719,"name":"LUP-Klinikum am Crivitzer See gGmbH","lat":53.575428,"lon":11.648122,"city":"Crivitz"},{"id":1191,"name":"MediClin Krankenhaus Plau am See","lat":53.47889,"lon":12.283449,"city":"Plau am See"},{"id":990,"name":"Sana HANSE-Klinikum Wismar GmbH","lat":53.884467,"lon":11.438567,"city":"Wismar"},{"id":1188,"name":"Sana HANSE-Klinikum Wismar GmbH","lat":53.884467,"lon":11.438567,"city":"Wismar"},{"id":623,"name":"Sana Krankenhaus Bad Doberan GmbH","lat":52.44763,"lon":13.762206,"city":"Hohenfelde"},{"id":781,"name":"Universitätsmedizin Greifswald Körperschaft des öffentlichen Rechts","lat":54.088089,"lon":13.405878,"city":"Greifswald"},{"id":188,"name":"Universitätsmedizin Rostock","lat":54.090058,"lon":12.120009,"city":"Rostock"},{"id":190,"name":"Universitätsmedizin Rostock","lat":54.101384,"lon":12.133201,"city":"Rostock"},{"id":192,"name":"Universitätsmedizin Rostock","lat":54.084239,"lon":12.101431,"city":"Rostock"},{"id":193,"name":"Universitätsmedizin Rostock","lat":54.090286,"lon":12.119729,"city":"Rostock"},{"id":325,"name":"Universitätsmedizin Rostock","lat":54.0854,"lon":12.103483,"city":"Rostock"},{"id":1183,"name":"Universitätsmedizin Rostock","lat":54.084638,"lon":12.102839,"city":"Rostock"},{"id":1184,"name":"Universitätsmedizin Rostock","lat":54.084638,"lon":12.102839,"city":"Rostock"},{"id":1185,"name":"Universitätsmedizin Rostock","lat":54.084638,"lon":12.102839,"city":"Rostock"}]
