[{"id":720,"name":"Caritas-Krankenhaus Lebach","lat":49.419094,"lon":6.88967,"city":"Lebach"},{"id":346,"name":"Caritasklinikum Saarbrücken St. Theresia","lat":49.277046,"lon":7.041283,"city":"Saarbrücken"},{"id":74,"name":"Diakonie Klinikum Neunkirchen gGmbH Kreuznacher Diakonie","lat":49.836783,"lon":7.863625,"city":"Neunkirchen"},{"id":2008,"name":"ehemalige Knappschaftsklinik Quierschied","lat":49.311906,"lon":7.036644,"city":""},{"id":2004,"name":"Gebäude 1","lat":49.31213,"lon":7.342795,"city":"Homburg"},{"id":2009,"name":"Klinik für Geriatrie und Neurologie","lat":49.563483,"lon":6.807838,"city":"Weiskirchen"},{"id":721,"name":"Klinikum Merzig gGmbH","lat":49.457,"lon":6.633248,"city":"Merzig"},{"id":361,"name":"Klinikum Saarbrücken gGmbH","lat":49.220782,"lon":6.996256,"city":"Saarbrücken"},{"id":707,"name":"Knappschaftsklinikum Saar GmbH Klinik Püttlingen","lat":49.277002,"lon":6.867977,"city":"Püttlingen"},{"id":2010,"name":"Knappschaftskrankenhaus Sulzbach","lat":49.297771,"lon":7.054767,"city":""},{"id":2001,"name":"Krankenhaus Saarlouis vom DRK","lat":49.313361,"lon":6.743985,"city":""},{"id":2000,"name":"Kreiskrankenhaus St. Ingbert","lat":49.29055,"lon":7.114348,"city":"Sankt Ingbert"},{"id":2007,"name":"Marienhaus Klinikum Neunkirchen","lat":49.317761,"lon":7.22732,"city":"Neunkirchen"},{"id":2002,"name":"Marienhaus Klinikum St. Elisabeth Saarlouis","lat":49.315124,"lon":6.757216,"city":""},{"id":1999,"name":"Marienkliniken Sankt Josef Losheim","lat":49.508872,"lon":6.74004,"city":""},{"id":2003,"name":"Marienkrankenhaus Sankt Wendel","lat":49.453417,"lon":7.178671,"city":""},{"id":136,"name":"MEDIAN Klinik Berus","lat":51.099723,"lon":6.816148,"city":"Überherrn-Berus"},{"id":622,"name":"Saarland-Heilstätten Gmbh SHG-Kliniken Sonnenberg","lat":49.20102,"lon":7.011028,"city":"Saarbrücken"},{"id":970,"name":"Saarland-Heilstätten GmbH SHG-Kliniken Völklingen","lat":49.257255,"lon":6.852501,"city":"Völklingen"},{"id":2005,"name":"SHG Fachklinik Tiefental","lat":49.198535,"lon":7.016229,"city":""},{"id":2006,"name":"SHG-Klinik für Kinder- und Jugendpsychiatrie und -psychotherapie","lat":49.153097,"lon":7.048293,"city":""},{"id":424,"name":"St. Nikolaus-Hospital Wallerfangen","lat":49.329093,"lon":6.712967,"city":"Lebach"},{"id":491,"name":"Stiftung Kreuznacher Diakonie Fliedner Krankenhaus","lat":49.348165,"lon":7.185938,"city":"Neunkirchen"},{"id":1161,"name":"UKS - Universitätsklinikum des Saarlandes","lat":49.306845,"lon":7.345358,"city":"Homburg"}]
