[{"id":720,"name":"Caritas-Krankenhaus Lebach","lat":49.419094,"lon":6.88967,"city":"Lebach"},{"id":346,"name":"Caritasklinikum Saarbrücken St. Theresia","lat":49.277046,"lon":7.041283,"city":"Saarbrücken"},{"id":74,"name":"Diakonie Klinikum Neunkirchen gGmbH Kreuznacher Diakonie","lat":49.836783,"lon":7.863625,"city":"Neunkirchen"},{"id":473,"name":"Diakonie Klinikum Neunkirchen gGmbH Kreuznacher Diakonie","lat":49.34092,"lon":7.18307,"city":"Neunkirchen"},{"id":721,"name":"Klinikum Merzig gGmbH","lat":49.457,"lon":6.633248,"city":"Merzig"},{"id":361,"name":"Klinikum Saarbrücken gGmbH","lat":49.220782,"lon":6.996256,"city":"Saarbrücken"},{"id":707,"name":"Knappschaftsklinikum Saar GmbH Klinik Püttlingen","lat":49.277002,"lon":6.867977,"city":"Püttlingen"},{"id":136,"name":"MEDIAN Klinik Berus","lat":51.099723,"lon":6.816148,"city":"Überherrn-Berus"},{"id":196,"name":"MEDIAN Klinik Berus","lat":52.199166,"lon":8.790748,"city":"Überherrn-Berus"},{"id":468,"name":"MEDIAN Klinik Berus","lat":52.65145,"lon":11.397021,"city":"Überherrn-Berus"},{"id":526,"name":"MEDIAN Klinik Berus","lat":52.325165,"lon":11.238268,"city":"Überherrn-Berus"},{"id":544,"name":"MEDIAN Klinik Berus","lat":50.159613,"lon":6.844192,"city":"Überherrn-Berus"},{"id":598,"name":"MEDIAN Klinik Berus","lat":52.504817,"lon":13.66057,"city":"Überherrn-Berus"},{"id":814,"name":"MEDIAN Klinik Berus","lat":50.794244,"lon":8.321105,"city":"Überherrn-Berus"},{"id":927,"name":"MEDIAN Klinik Berus","lat":50.286759,"lon":9.360162,"city":"Überherrn-Berus"},{"id":622,"name":"Saarland-Heilstätten Gmbh SHG-Kliniken Sonnenberg","lat":49.20102,"lon":7.011028,"city":"Saarbrücken"},{"id":970,"name":"Saarland-Heilstätten GmbH SHG-Kliniken Völklingen","lat":49.257255,"lon":6.852501,"city":"Völklingen"},{"id":424,"name":"St. Nikolaus-Hospital Wallerfangen","lat":49.329093,"lon":6.712967,"city":"Lebach"},{"id":491,"name":"Stiftung Kreuznacher Diakonie Fliedner Krankenhaus","lat":49.348165,"lon":7.185938,"city":"Neunkirchen"},{"id":1161,"name":"UKS - Universitätsklinikum des Saarlandes","lat":49.306845,"lon":7.345358,"city":"Homburg"}]
