[{"id":1217,"name":"ASKLEPIOS Fachklinikum Stadtroda GmbH","lat":50.861913,"lon":11.726565,"city":"Stadtroda"},{"id":2117,"name":"Caritas-Heim Maria am See","lat":50.806927,"lon":10.237758,"city":"Bad Salzungen"},{"id":2134,"name":"Charlottenhall","lat":50.813488,"lon":10.230018,"city":"Bad Salzungen"},{"id":2120,"name":"Deutsche Rentenversicherung BUND – Reha-Zentrum Bad Frankenhausen","lat":51.358857,"lon":11.115498,"city":"Bad Frankenhausen/Kyffhäuser"},{"id":1210,"name":"Dr. Becker Burg-Klinik","lat":50.782436,"lon":10.127556,"city":"Dermbach"},{"id":2123,"name":"DRK-Vorsorge- und Rehaeinrichtung für Mutter und Kind - \"Schloss Neuhaus\"","lat":50.314719,"lon":11.244743,"city":"Föritztal"},{"id":549,"name":"Eichsfeld Klinikum gGmbH","lat":51.376347,"lon":10.14113,"city":"Heilbad Heiligenstadt"},{"id":2127,"name":"Eichsfeld Klinikum gGmbH-Haus Reifenstein","lat":51.347016,"lon":10.363167,"city":"Niederorschel"},{"id":584,"name":"Elisabeth Klinikum Schmalkalden GmbH","lat":50.721987,"lon":10.440529,"city":"Schmalkalden"},{"id":2133,"name":"Fachklinik Bad Blankenburg","lat":50.675875,"lon":11.266402,"city":"Bad Blankenburg"},{"id":2109,"name":"Fachklinik Rusteberg","lat":51.385352,"lon":10.008141,"city":"Marth"},{"id":1215,"name":"Fachkrankenhaus für Dermatologie Schloss Friedensburg GmbH","lat":50.565328,"lon":11.45887,"city":"Leutenberg, Thüringen"},{"id":2131,"name":"Geriatrische Fachklinik \"Georgenhaus\"","lat":50.580014,"lon":10.422474,"city":"Meiningen"},{"id":2114,"name":"Gesundheitszentrum \"Am Rennsteig\"","lat":50.472328,"lon":11.081716,"city":"Neuhaus am Rennweg"},{"id":2100,"name":"Hausarztpraxis","lat":51.176406,"lon":10.276827,"city":""},{"id":255,"name":"Helios Fachkliniken Hildburghausen GmbH","lat":50.42512,"lon":10.741998,"city":"Hildburghausen"},{"id":1214,"name":"Helios Klinik Blankenhain GmbH","lat":50.860102,"lon":11.33945,"city":"Blankenhain"},{"id":669,"name":"Helios Klinik Bleicherode","lat":51.443193,"lon":10.566641,"city":"Bleicherode"},{"id":159,"name":"Helios Klinikum Erfurt GmbH","lat":50.992677,"lon":11.013025,"city":"Erfurt"},{"id":2126,"name":"Helios Klinikum Gotha","lat":50.928089,"lon":10.67744,"city":"Gotha"},{"id":274,"name":"Helios Klinikum Meiningen GmbH","lat":50.557635,"lon":10.397028,"city":"Meiningen"},{"id":2099,"name":"Helios Psychiatrische Tagesklinik Ilmenau","lat":50.686977,"lon":10.920979,"city":""},{"id":2105,"name":"Hennebergklinik","lat":50.508201,"lon":10.754676,"city":""},{"id":577,"name":"Hufeland Klinikum GmbH","lat":51.105252,"lon":10.649602,"city":"Bad Langensalza"},{"id":2106,"name":"Hufeland Klinikum Mühlhausen","lat":51.201323,"lon":10.468215,"city":"Mühlhausen"},{"id":209,"name":"Ilm-Kreis-Kliniken Arnstadt-Ilmenau gGmbH","lat":50.678708,"lon":10.917609,"city":"Ilmenau"},{"id":2110,"name":"Immanuel Therapiezentrum Bad Liebenstein","lat":50.816319,"lon":10.335629,"city":"Bad Liebenstein"},{"id":2128,"name":"Inselsberg Klinik","lat":50.882505,"lon":10.499758,"city":"Bad Tabarz"},{"id":1205,"name":"Katholisches Krankenhaus \"St. Johann Nepomuk\" Erfurt","lat":50.947741,"lon":11.085053,"city":"Erfurt"},{"id":2101,"name":"KfH-Nierenzentrum","lat":50.979636,"lon":10.325624,"city":"Eisenach"},{"id":2108,"name":"Klinik am Rennsteig","lat":50.871903,"lon":10.513176,"city":"Bad Tabarz"},{"id":1216,"name":"Klinik an der Weißenburg GmbH","lat":50.731318,"lon":11.448364,"city":"Uhlstädt-Kirchhasel"},{"id":2129,"name":"Klinik Bergfried Saalfeld","lat":50.632219,"lon":11.37075,"city":"Saalfeld/Saale"},{"id":2124,"name":"Klinik für Psychiatrie, Psychotherapie und Psychosomatik","lat":50.988669,"lon":12.424375,"city":"Altenburg"},{"id":483,"name":"Klinikum Altenburger Land GmbH","lat":50.972391,"lon":12.439928,"city":"Altenburg"},{"id":2103,"name":"Klinikum Bad Salzungen","lat":50.80332,"lon":10.218629,"city":"Bad Salzungen"},{"id":2116,"name":"KMG Klinikum Sömmerda","lat":51.16215,"lon":11.121934,"city":"Sömmerda"},{"id":663,"name":"KMG Klinikum Thueringen Brandenburg GmbH","lat":51.373689,"lon":10.878611,"city":"Sondershausen"},{"id":2130,"name":"Kompetenz­zentrum für Geriatrie-St. Elisabeth","lat":51.213534,"lon":10.217866,"city":"Lengenfeld unterm Stein"},{"id":124,"name":"Kreiskrankenhaus Greiz GmbH","lat":50.662868,"lon":12.199026,"city":"Greiz"},{"id":645,"name":"Kreiskrankenhaus Greiz-Ronneburg GmbH Fachklinik für Geriatrie","lat":50.867063,"lon":12.188268,"city":"Ronneburg"},{"id":147,"name":"Lungenklinik Neustadt","lat":51.560172,"lon":10.840153,"city":"Harztor-Neustadt"},{"id":185,"name":"m&i-Fachklinik Bad Liebenstein","lat":50.813939,"lon":10.353981,"city":"Bad Liebenstein"},{"id":465,"name":"Marienstift Arnstadt - Fachklinik für Orthopädie","lat":50.837489,"lon":10.944878,"city":"Arnstadt"},{"id":2118,"name":"MEDIAN Klinik Bad Lobenstein","lat":50.441863,"lon":11.63216,"city":""},{"id":270,"name":"MEDIAN Klinik Bad Tennstedt","lat":52.07375,"lon":10.012696,"city":"Bad Tennstedt"},{"id":2113,"name":"MEDIAN Klinik Römhild","lat":50.389821,"lon":10.566255,"city":"Römhild"},{"id":2115,"name":"Moritz Klinik","lat":50.918307,"lon":11.860225,"city":""},{"id":2107,"name":"Mutter-und-Kind-Kurklinik Regenbogenland","lat":50.530092,"lon":11.611574,"city":""},{"id":2122,"name":"MVZ Kölleda","lat":51.184186,"lon":11.246302,"city":""},{"id":1212,"name":"REGIOMED Klinikum Hildburghausen","lat":50.429225,"lon":10.72849,"city":"Hildburghausen"},{"id":244,"name":"REGIOMED Klinikum Sonneberg/Neuhaus","lat":50.353976,"lon":11.162693,"city":"Sonneberg"},{"id":2119,"name":"Reha-Klinik am Kyffhäuser für Kinder und Jugendliche","lat":51.359795,"lon":11.092434,"city":"Bad Frankenhausen/Kyffhäuser"},{"id":541,"name":"Robert-Koch-Krankenhaus Apolda GmbH","lat":51.012681,"lon":11.512275,"city":"Apolda"},{"id":846,"name":"Sophien- und Hufeland-Klinikum gGmbH","lat":50.960336,"lon":11.322106,"city":"Weimar"},{"id":1211,"name":"SRH Krankenhaus Waltershausen-Friedrichroda GmbH","lat":50.860955,"lon":10.560394,"city":"Friedrichroda"},{"id":1206,"name":"SRH Wald-Klinikum Gera","lat":50.868581,"lon":12.051113,"city":"Gera"},{"id":148,"name":"St. Georg Klinikum Eisenach gGmbH","lat":50.988596,"lon":10.316079,"city":"Eisenach"},{"id":1218,"name":"Sternbach-Klinik Schleiz GmbH","lat":50.576592,"lon":11.817575,"city":"Schleiz"},{"id":2125,"name":"Südharz Klinikum","lat":51.515991,"lon":10.794817,"city":"Nordhausen"},{"id":2102,"name":"Tagesklinik für Psychiatrie und Psychotherapie","lat":50.933006,"lon":11.575391,"city":""},{"id":555,"name":"Thüringen Kliniken \"Georgius Agricola\" GmbH","lat":50.644459,"lon":11.343902,"city":"Saalfeld/Saale"},{"id":2132,"name":"Thüringen-Kliniken \"Georgius Agricola\" - Standort Pößneck","lat":50.698383,"lon":11.590672,"city":"Pößneck"},{"id":2111,"name":"Thüringen-Kliniken \"Georgius Agricola\"- Standort Rudolstadt","lat":50.70715,"lon":11.315595,"city":"Rudolstadt"},{"id":1207,"name":"Universitätsklinikum Jena","lat":50.885396,"lon":11.620865,"city":"Jena"},{"id":2104,"name":"Universitätsklinikum Jena - Standort Bachstraße","lat":50.92914,"lon":11.578502,"city":"Jena"},{"id":791,"name":"Waldkliniken Eisenberg GmbH","lat":50.956924,"lon":11.883407,"city":"Eisenberg"},{"id":1213,"name":"Zentralklinik Bad Berka GmbH","lat":50.890018,"lon":11.267045,"city":"Bad Berka"},{"id":2112,"name":"Zentralklinikum Suhl","lat":50.602515,"lon":10.710491,"city":"Suhl"},{"id":2121,"name":"Ökumenisches Hainich Klinikum - Klinik Bad Frankenhausen","lat":51.35375,"lon":11.10795,"city":""},{"id":328,"name":"Ökumenisches Hainich Klinikum gGmbH","lat":51.20935,"lon":10.401634,"city":"Mühlhausen"}]
