[{"id":1217,"name":"ASKLEPIOS Fachklinikum Stadtroda GmbH","lat":50.861913,"lon":11.726565,"city":"Stadtroda"},{"id":1210,"name":"Dr. Becker Burg-Klinik","lat":50.782436,"lon":10.127556,"city":"Dermbach"},{"id":549,"name":"Eichsfeld Klinikum gGmbH","lat":51.376347,"lon":10.14113,"city":"Heilbad Heiligenstadt"},{"id":584,"name":"Elisabeth Klinikum Schmalkalden GmbH","lat":50.721987,"lon":10.440529,"city":"Schmalkalden"},{"id":1215,"name":"Fachkrankenhaus für Dermatologie Schloss Friedensburg GmbH","lat":50.565328,"lon":11.45887,"city":"Leutenberg, Thüringen"},{"id":255,"name":"Helios Fachkliniken Hildburghausen GmbH","lat":50.42512,"lon":10.741998,"city":"Hildburghausen"},{"id":1214,"name":"Helios Klinik Blankenhain GmbH","lat":50.860102,"lon":11.33945,"city":"Blankenhain"},{"id":669,"name":"Helios Klinik Bleicherode","lat":49.810955,"lon":9.166638,"city":"Bleicherode"},{"id":159,"name":"Helios Klinikum Erfurt GmbH","lat":50.992677,"lon":11.013025,"city":"Erfurt"},{"id":274,"name":"Helios Klinikum Meiningen GmbH","lat":50.557635,"lon":10.397028,"city":"Meiningen"},{"id":577,"name":"Hufeland Klinikum GmbH","lat":51.105252,"lon":10.649602,"city":"Bad Langensalza"},{"id":209,"name":"Ilm-Kreis-Kliniken Arnstadt-Ilmenau gGmbH","lat":50.678708,"lon":10.917609,"city":"Ilmenau"},{"id":381,"name":"Ilm-Kreis-Kliniken Arnstadt-Ilmenau gGmbH","lat":50.839414,"lon":10.941457,"city":"Arnstadt"},{"id":1205,"name":"Katholisches Krankenhaus \"St. Johann Nepomuk\" Erfurt","lat":50.947741,"lon":11.085053,"city":"Erfurt"},{"id":1216,"name":"Klinik an der Weißenburg GmbH","lat":50.731318,"lon":11.448364,"city":"Uhlstädt-Kirchhasel"},{"id":483,"name":"Klinikum Altenburger Land GmbH","lat":50.972391,"lon":12.439928,"city":"Altenburg"},{"id":663,"name":"KMG Klinikum Thueringen Brandenburg GmbH","lat":51.373689,"lon":10.878611,"city":"Sondershausen"},{"id":124,"name":"Kreiskrankenhaus Greiz GmbH","lat":50.662868,"lon":12.199026,"city":"Greiz"},{"id":645,"name":"Kreiskrankenhaus Greiz-Ronneburg GmbH Fachklinik für Geriatrie","lat":50.867063,"lon":12.188268,"city":"Ronneburg"},{"id":147,"name":"Lungenklinik Neustadt","lat":51.560172,"lon":10.840153,"city":"Harztor-Neustadt"},{"id":185,"name":"m&i-Fachklinik Bad Liebenstein","lat":50.813939,"lon":10.353981,"city":"Bad Liebenstein"},{"id":888,"name":"m&i-Fachklinik Bad Liebenstein","lat":50.813473,"lon":10.352897,"city":"Bad Liebenstein"},{"id":465,"name":"Marienstift Arnstadt - Fachklinik für Orthopädie","lat":50.837489,"lon":10.944878,"city":"Arnstadt"},{"id":270,"name":"MEDIAN Klinik Bad Tennstedt","lat":52.07375,"lon":10.012696,"city":"Bad Tennstedt"},{"id":876,"name":"MEDIAN Klinik Bad Tennstedt","lat":54.112722,"lon":12.653032,"city":"Bad Tennstedt"},{"id":1212,"name":"REGIOMED Klinikum Hildburghausen","lat":50.429225,"lon":10.72849,"city":"Hildburghausen"},{"id":244,"name":"REGIOMED Klinikum Sonneberg/Neuhaus","lat":50.353976,"lon":11.162693,"city":"Sonneberg"},{"id":541,"name":"Robert-Koch-Krankenhaus Apolda GmbH","lat":51.012681,"lon":11.512275,"city":"Apolda"},{"id":846,"name":"Sophien- und Hufeland-Klinikum gGmbH","lat":50.960336,"lon":11.322106,"city":"Weimar"},{"id":1211,"name":"SRH Krankenhaus Waltershausen-Friedrichroda GmbH","lat":50.860955,"lon":10.560394,"city":"Friedrichroda"},{"id":1206,"name":"SRH Wald-Klinikum Gera","lat":50.868581,"lon":12.051113,"city":"Gera"},{"id":148,"name":"St. Georg Klinikum Eisenach gGmbH","lat":50.988596,"lon":10.316079,"city":"Eisenach"},{"id":1218,"name":"Sternbach-Klinik Schleiz GmbH","lat":50.576592,"lon":11.817575,"city":"Schleiz"},{"id":555,"name":"Thüringen Kliniken \"Georgius Agricola\" GmbH","lat":50.644459,"lon":11.343902,"city":"Saalfeld/Saale"},{"id":1207,"name":"Universitätsklinikum Jena","lat":50.885396,"lon":11.620865,"city":"Jena"},{"id":1208,"name":"Universitätsklinikum Jena","lat":50.885396,"lon":11.620865,"city":"Jena"},{"id":1209,"name":"Universitätsklinikum Jena","lat":50.885396,"lon":11.620865,"city":"Jena"},{"id":791,"name":"Waldkliniken Eisenberg GmbH","lat":50.956924,"lon":11.883407,"city":"Eisenberg"},{"id":1213,"name":"Zentralklinik Bad Berka GmbH","lat":50.890018,"lon":11.267045,"city":"Bad Berka"},{"id":328,"name":"Ökumenisches Hainich Klinikum gGmbH","lat":51.20935,"lon":10.401634,"city":"Mühlhausen"}]
