[{"name": "Kreiskrankenhaus Torgau \"Johann Kentmann\"", "lat": 51.5615645, "lon": 12.984629, "city": "Torgau", "state": "Sachsen"}, {"name": "DIAKOMED- Diakoniekrankenhaus Chemnitzer Land gGmbH", "lat": 50.8830028, "lon": 12.7926678, "city": "Hartmannsdorf", "state": "Sachsen"}, {"name": "MEDIAN Klinik Gunzenbachhof Baden-Baden", "lat": 48.7486287, "lon": 8.244032, "city": "Baden-Baden", "state": "Baden-W\u00fcrttemberg"}, {"name": "Ortenau Klinikum Offenburg-Kehl", "lat": 48.4761467, "lon": 7.9555411, "city": "Offenburg", "state": "Baden-W\u00fcrttemberg"}, {"name": "WolfartKlinik", "lat": 48.1179807, "lon": 11.421919, "city": "Gr\u00e4felfing", "state": "Bayern"}, {"name": "Sana Klinik M\u00fcnchen GmbH", "lat": 48.1042723, "lon": 11.5394238, "city": "M\u00fcnchen", "state": "Bayern"}, {"name": "Klinik Dr. Maul GmbH", "lat": 48.7714915, "lon": 11.4328451, "city": "Ingolstadt", "state": "Bayern"}, {"name": "ARCUS Sportklinik", "lat": 48.8977899, "lon": 8.664974, "city": "Pforzheim", "state": "Baden-W\u00fcrttemberg"}, {"name": "Frauenklinik Dr. Geisenhofer GmbH", "lat": 48.1515148, "lon": 11.5960485, "city": "M\u00fcnchen", "state": "Bayern"}, {"name": "VAMED Klinik Hagen-Ambrock", "lat": 51.3149273, "lon": 7.5148275, "city": "Hagen, Westfalen", "state": "Nordrhein-Westfalen"}, {"name": "Klinik in der Zarten", "lat": 47.9004917, "lon": 8.1058484, "city": "Hinterzarten", "state": "Baden-W\u00fcrttemberg"}, {"name": "Winghofer Medicum", "lat": 48.4803926, "lon": 8.9484496, "city": "Rottenburg am Neckar", "state": "Baden-W\u00fcrttemberg"}, {"name": "Isar Kliniken GmbH", "lat": 48.1347002, "lon": 11.5650239, "city": "M\u00fcnchen", "state": "Bayern"}, {"name": "Niels-Stensen-Kliniken St. Vinzenz-Hospital Hasel\u00fcnne", "lat": 52.5404711, "lon": 7.8742164, "city": "Hasel\u00fcnne", "state": "Niedersachsen"}, {"name": "Berglandklinik L\u00fcdenscheid GmbH & Co. KG", "lat": 51.2072819, "lon": 7.6373849, "city": "L\u00fcdenscheid", "state": "Nordrhein-Westfalen"}, {"name": "Krankenhaus Landshut-Achdorf", "lat": 48.6980355, "lon": 12.0032895, "city": "Rottenburg an der Laaber", "state": "Bayern"}, {"name": "Paracelsus Krankenhaus Unterlegenhardt", "lat": 48.7818812, "lon": 8.7233692, "city": "Bad Liebenzell", "state": "Baden-W\u00fcrttemberg"}, {"name": "St.-Marien-Hospital Marsberg", "lat": 51.4650438, "lon": 8.8440701, "city": "Marsberg, Sauerland", "state": "Nordrhein-Westfalen"}, {"name": "Arberlandklinik Zwiesel", "lat": 49.0072976, "lon": 13.2183653, "city": "Zwiesel", "state": "Bayern"}, {"name": "Sankt Rochus Kliniken - Fr\u00fchrehabilitation Phase B", "lat": 49.2199506, "lon": 8.6664432, "city": "Bad Sch\u00f6nborn", "state": "Baden-W\u00fcrttemberg"}, {"name": "Krankenhaus Spremberg", "lat": 51.5652149, "lon": 14.3739244, "city": "Spremberg (NL)", "state": "Brandenburg"}, {"name": "SRH Kurpfalzkrankenhaus Heidelberg", "lat": 49.4136043, "lon": 8.6538078, "city": "Heidelberg", "state": "Baden-W\u00fcrttemberg"}, {"name": "Paracelsus-Nordseeklinik Helgoland", "lat": 51.876518, "lon": 10.0351333, "city": "Helgoland", "state": "Schleswig-Holstein"}, {"name": "Evangelisches Krankenhaus Dierdorf/Selters gGmbH", "lat": 50.5293206, "lon": 7.7592335, "city": "Dierdorf", "state": "Rheinland-Pfalz"}, {"name": "Helios-Wei\u00dferitztal-Klinik Freital", "lat": 50.9008493, "lon": 13.6677577, "city": "Dippoldiswalde", "state": "Sachsen"}, {"name": "DIAKOVERE Henriettenstift", "lat": 52.3632398, "lon": 9.8282801, "city": "Hannover", "state": "Niedersachsen"}, {"name": "Kreiskrankenhaus Emmendingen", "lat": 48.1252505, "lon": 7.855804, "city": "Emmendingen", "state": "Baden-W\u00fcrttemberg"}, {"name": "Klinik mednord GmbH", "lat": 48.2018974, "lon": 11.5872598, "city": "M\u00fcnchen", "state": "Bayern"}, {"name": "Klinikum Fichtelgebirge gGmbH", "lat": 50.0018257, "lon": 12.0662375, "city": "Marktredwitz", "state": "Bayern"}, {"name": "Clemens-August-Klinik", "lat": 52.5128232, "lon": 8.1066413, "city": "Neuenkirchen-V\u00f6rden", "state": "Niedersachsen"}, {"name": "Clemens-August-Klinik", "lat": 52.5131652, "lon": 8.1090349, "city": "Neuenkirchen-V\u00f6rden", "state": "Niedersachsen"}, {"name": "Marianne-Strau\u00df-Klinik Behandlungszentrum Kempfenhausen gGmbH", "lat": 47.9880622, "lon": 11.3643046, "city": "Berg", "state": "Bayern"}, {"name": "Winghofer Medicum", "lat": 48.4771888, "lon": 8.9414347, "city": "Rottenburg am Neckar", "state": "Baden-W\u00fcrttemberg"}, {"name": "Universit\u00e4tsklinikum Erlangen", "lat": 49.599543, "lon": 11.0125554, "city": "Erlangen", "state": "Bayern"}, {"name": "Universit\u00e4tsklinikum Heidelberg", "lat": 49.4155972, "lon": 8.6663847, "city": "Heidelberg", "state": "Baden-W\u00fcrttemberg"}, {"name": "Evangelisches Klinikum Bethel gGmbH", "lat": 52.0139033, "lon": 8.5253601, "city": "Bielefeld", "state": "Nordrhein-Westfalen"}, {"name": "Klinikum Fichtelgebirge gGmbH", "lat": 50.1689972, "lon": 12.1182996, "city": "Selb", "state": "Bayern"}, {"name": "Helios-Wei\u00dferitztal-Klinik Freital", "lat": 50.9914894, "lon": 13.6454717, "city": "Freital", "state": "Sachsen"}, {"name": "Klinik Klosterstra\u00dfe GmbH", "lat": 54.0787453, "lon": 9.9948417, "city": "Neum\u00fcnster", "state": "Schleswig-Holstein"}, {"name": "Evangelisches Klinikum Bethel gGmbH", "lat": 52.0417494, "lon": 8.5406865, "city": "Bielefeld", "state": "Nordrhein-Westfalen"}, {"name": "Universit\u00e4tsklinikum Augsburg A\u00f6R", "lat": 48.3845961, "lon": 10.8396143, "city": "Augsburg", "state": "Bayern"}, {"name": "Sch\u00f6n Klinik Lorsch", "lat": 51.377627, "lon": 9.0207072, "city": "Lorsch", "state": "Hessen"}, {"name": "Helios-Klinik Titisee-Neustadt", "lat": 47.9257773, "lon": 8.1871541, "city": "Titisee-Neustadt", "state": "Baden-W\u00fcrttemberg"}, {"name": "Evangelische Stiftung Tannenhof", "lat": 51.1816571, "lon": 7.190659, "city": "Remscheid", "state": "Nordrhein-Westfalen"}, {"name": "Bezirksklinikum Regensburg", "lat": 49.1536854, "lon": 11.71951, "city": "Amberg", "state": "Bayern"}, {"name": "Sana Klinik M\u00fcnchen GmbH", "lat": 48.1036903, "lon": 11.5398032, "city": "M\u00fcnchen", "state": "Bayern"}, {"name": "AMEOS Klinikum Ueckerm\u00fcnde", "lat": 53.7407362, "lon": 14.0220984, "city": "Ueckerm\u00fcnde", "state": "Mecklenburg-Vorpommern"}, {"name": "Maria-Theresia-Klinik", "lat": 48.1266722, "lon": 11.5493435, "city": "M\u00fcnchen", "state": "Bayern"}, {"name": "Klinik Sch\u00f6neberg", "lat": 52.4987992, "lon": 13.3445517, "city": "Berlin", "state": "Berlin"}, {"name": "Dr. Becker Kiliani-Klinik AKUT", "lat": 51.309814, "lon": 7.2379577, "city": "Bad Windsheim", "state": "Bayern"}, {"name": "Universit\u00e4tsklinikum Erlangen", "lat": 49.5981446, "lon": 11.0124965, "city": "Erlangen", "state": "Bayern"}, {"name": "Universit\u00e4tsklinikum Erlangen", "lat": 49.5983253, "lon": 11.0117263, "city": "Erlangen", "state": "Bayern"}, {"name": "Universit\u00e4tsklinikum Heidelberg", "lat": 49.4168447, "lon": 8.6628963, "city": "Heidelberg", "state": "Baden-W\u00fcrttemberg"}, {"name": "Universit\u00e4tsklinikum Heidelberg", "lat": 49.4166199, "lon": 8.6628954, "city": "Heidelberg", "state": "Baden-W\u00fcrttemberg"}, {"name": "Universit\u00e4tsklinikum Heidelberg", "lat": 49.4169203, "lon": 8.662535, "city": "Heidelberg", "state": "Baden-W\u00fcrttemberg"}, {"name": "Martini-Klinik am UKE", "lat": 53.5890661, "lon": 9.9713778, "city": "Hamburg", "state": "Hamburg"}, {"name": "OCM Klinik GmbH, Orthop\u00e4dische Chirurgie M\u00fcnchen", "lat": 48.1040115, "lon": 11.5392429, "city": "M\u00fcnchen", "state": "Bayern"}, {"name": "Akutklinik Am sch\u00f6nen Moos", "lat": 48.0136402, "lon": 9.4828454, "city": "Bad Saulgau", "state": "Baden-W\u00fcrttemberg"}, {"name": "Universit\u00e4tsklinikum Bonn", "lat": 50.7023279, "lon": 7.1022143, "city": "Bonn", "state": "Nordrhein-Westfalen"}, {"name": "Gertrudis-Klinik Parkinson-Zentrum GmbH", "lat": 50.5330711, "lon": 8.3084106, "city": "Leun", "state": "Hessen"}, {"name": "m&i-Fachkliniken Hohenurach (Akutklinik)", "lat": 48.5043782, "lon": 9.376891, "city": "Bad Urach", "state": "Baden-W\u00fcrttemberg"}, {"name": "m&i-Fachkliniken Hohenurach (Akutklinik)", "lat": 48.5064833, "lon": 9.3762711, "city": "Bad Urach", "state": "Baden-W\u00fcrttemberg"}, {"name": "Klinikum Leverkusen", "lat": 51.0317792, "lon": 7.0343144, "city": "Leverkusen", "state": "Nordrhein-Westfalen"}, {"name": "Luisenklinik TK RZ", "lat": 47.7370726, "lon": 8.9771061, "city": "Radolfzell am Bodensee", "state": "Baden-W\u00fcrttemberg"}, {"name": "Eilenriede Klinik Hannover", "lat": 52.3955081, "lon": 9.7464581, "city": "Hannover", "state": "Niedersachsen"}, {"name": "Danuvius Klinik GmbH", "lat": 48.5184792, "lon": 11.4971833, "city": "Ingolstadt", "state": "Bayern"}, {"name": "Facharztklinik Hamburg", "lat": 53.5883283, "lon": 9.9727691, "city": "Hamburg", "state": "Hamburg"}, {"name": "Universit\u00e4tsklinikum Erlangen", "lat": 49.5954742, "lon": 11.0254189, "city": "Erlangen", "state": "Bayern"}, {"name": "Pfalzklinikum f\u00fcr Psychiatrie", "lat": 49.6304177, "lon": 7.8143081, "city": "Kaiserslautern", "state": "Rheinland-Pfalz"}, {"name": "ASKLEPIOS Fachklinikum G\u00f6ttingen", "lat": 51.5612749, "lon": 9.9046376, "city": "G\u00f6ttingen", "state": "Niedersachsen"}, {"name": "ASKLEPIOS-ASB Klinik Radeberg", "lat": 48.1280473, "lon": 8.2315536, "city": "Radeberg", "state": "Sachsen"}, {"name": "Kliniken Ostallg\u00e4u-Kaufbeuren, A\u00f6R des Landkreises Ostallg\u00e4u und der Stadt Kaufbeuren - Klinik F\u00fcssen", "lat": 47.5668266, "lon": 10.7045526, "city": "F\u00fcssen", "state": "Bayern"}, {"name": "Rheinhessen-Fachklinik", "lat": 50.0153919, "lon": 8.239119, "city": "Mainz am Rhein", "state": "Rheinland-Pfalz"}, {"name": "Diakonie Klinikum Neunkirchen gGmbH Kreuznacher Diakonie", "lat": 49.8367828, "lon": 7.863625, "city": "Neunkirchen", "state": "Saarland"}, {"name": "Elisabeth-Krankenhaus Essen GmbH", "lat": 51.4995123, "lon": 7.0058575, "city": "Essen, Ruhr", "state": "Nordrhein-Westfalen"}, {"name": "Klinik 2000", "lat": 48.0238925, "lon": 7.8144239, "city": "Freiburg", "state": "Baden-W\u00fcrttemberg"}, {"name": "Klinik Dr. R\u00f6mer - Akutklinik f\u00fcr Psychosomatik und Psychotherapie", "lat": 48.7362333, "lon": 8.7321104, "city": "Calw", "state": "Baden-W\u00fcrttemberg"}, {"name": "Luisenklinik TK RZ", "lat": 48.7712998, "lon": 9.1721348, "city": "Radolfzell am Bodensee", "state": "Baden-W\u00fcrttemberg"}, {"name": "Klinikum Stuttgart", "lat": 48.7916756, "lon": 9.1789558, "city": "Stuttgart", "state": "Baden-W\u00fcrttemberg"}, {"name": "Katholisches Klinikum L\u00fcnen/Werne", "lat": 51.6188451, "lon": 7.5180027, "city": "L\u00fcnen", "state": "Nordrhein-Westfalen"}, {"name": "Universit\u00e4tsklinikum Hamburg-Eppendorf (UKE)", "lat": 53.5907493, "lon": 9.9746838, "city": "Hamburg", "state": "Hamburg"}, {"name": "Charit\u00e9 Universit\u00e4tsmedizin Berlin", "lat": 52.5421518, "lon": 13.342863, "city": "Berlin", "state": "Berlin"}, {"name": "B\u00fcrgerhospital und Clementine Kinderhospital", "lat": 50.1304097, "lon": 8.6862871, "city": "Frankfurt", "state": "Hessen"}, {"name": "Vivantes Komfortklinik GmbH", "lat": 52.5897365, "lon": 13.3077982, "city": "Berlin", "state": "Berlin"}, {"name": "Frankfurter Rotkreuz-Kliniken", "lat": 50.1198358, "lon": 8.6882513, "city": "Frankfurt", "state": "Hessen"}, {"name": "Sankt Katharinen Krankenhaus", "lat": 50.1360938, "lon": 8.7108513, "city": "Frankfurt", "state": "Hessen"}, {"name": "Berufsgenossenschaftliche Unfallklinik", "lat": 50.1447874, "lon": 8.708794, "city": "Frankfurt", "state": "Hessen"}, {"name": "ASKLEPIOS Kliniken Langen-Seligenstadt GmbH", "lat": 49.9983996, "lon": 8.6840079, "city": "Langen", "state": "Hessen"}, {"name": "Robert-Bosch-Krankenhaus", "lat": 48.8142575, "lon": 9.1862984, "city": "Stuttgart", "state": "Baden-W\u00fcrttemberg"}, {"name": "Klinik K\u00f6nig-Ludwig-Haus", "lat": 49.7822437, "lon": 9.9485815, "city": "W\u00fcrzburg", "state": "Bayern"}, {"name": "Evangelisches Krankenhaus Kalk gGmbH", "lat": 50.9412983, "lon": 7.0093887, "city": "K\u00f6ln", "state": "Nordrhein-Westfalen"}, {"name": "Helios Klinik M\u00fcllheim", "lat": 48.1443992, "lon": 11.4541663, "city": "M\u00fcllheim", "state": "Baden-W\u00fcrttemberg"}, {"name": "Klinikum Dritter Orden", "lat": 48.1657409, "lon": 11.5050996, "city": "M\u00fcnchen", "state": "Bayern"}, {"name": "St\u00e4dtisches Klinikum Braunschweig", "lat": 52.2747448, "lon": 10.5037949, "city": "Braunschweig", "state": "Niedersachsen"}, {"name": "Krankenhaus Leonberg", "lat": 48.802829, "lon": 9.0003844, "city": "Leonberg", "state": "Baden-W\u00fcrttemberg"}, {"name": "Kliniken des Main-Taunus-Kreises GmbH", "lat": 50.1508989, "lon": 8.5145784, "city": "Bad Soden", "state": "Hessen"}, {"name": "St\u00e4dtisches Krankenhaus Kiel GmbH", "lat": 54.322936, "lon": 10.1164429, "city": "Kiel", "state": "Schleswig-Holstein"}, {"name": "Krankenhaus Bad Oeynhausen", "lat": 52.1935285, "lon": 8.7974217, "city": "Bad Oeynhausen", "state": "Nordrhein-Westfalen"}, {"name": "St. Anna-Klinik", "lat": 48.8072049, "lon": 9.2303812, "city": "Stuttgart", "state": "Baden-W\u00fcrttemberg"}, {"name": "St\u00e4dtische Kliniken M\u00f6nchengladbach GmbH - Elisabeth-Krankenhaus Rheydt", "lat": 51.1581384, "lon": 6.4186197, "city": "M\u00f6nchengladbach", "state": "Nordrhein-Westfalen"}, {"name": "Privatkrankenanstalt Wiesbaden", "lat": 49.461705, "lon": 12.4120378, "city": "Wiesbaden", "state": "Hessen"}, {"name": "ASKLEPIOS S\u00fcdpfalzkliniken", "lat": 49.0861819, "lon": 8.2008986, "city": "Germersheim", "state": "Rheinland-Pfalz"}, {"name": "Helios Klinik Idstein", "lat": 50.208746, "lon": 8.2638589, "city": "Idstein", "state": "Hessen"}, {"name": "Klinikum der Stadt Ludwigshafen am Rhein gGmbH", "lat": 49.48982, "lon": 8.4258073, "city": "Ludwigshafen am Rhein", "state": "Rheinland-Pfalz"}, {"name": "Klinik St. Marienstift", "lat": 52.1373597, "lon": 11.6004457, "city": "Magdeburg", "state": "Sachsen-Anhalt"}, {"name": "Privatklinik Dr. Amelung GmbH", "lat": 50.1894528, "lon": 8.4688336, "city": "K\u00f6nigstein", "state": "Hessen"}, {"name": "Marien Hospital Dortmund-Hombruch", "lat": 51.4785067, "lon": 7.4421086, "city": "Dortmund", "state": "Nordrhein-Westfalen"}, {"name": "GFO Klinik Langenfeld", "lat": 50.8273822, "lon": 6.9004652, "city": "Langenfeld (Rheinland)", "state": "Nordrhein-Westfalen"}, {"name": "Klinikum rechts der Isar der Technischen Universit\u00e4t M\u00fcnchen", "lat": 48.1378637, "lon": 11.6015429, "city": "M\u00fcnchen", "state": "Bayern"}, {"name": "Kliniken der Stadt K\u00f6ln Standort Riehl", "lat": 50.9627397, "lon": 6.9664631, "city": "K\u00f6ln", "state": "Nordrhein-Westfalen"}, {"name": "Klinikum Wilhelmshaven gGmbH", "lat": 53.5454757, "lon": 8.0828256, "city": "Wilhelmshaven", "state": "Niedersachsen"}, {"name": "ASKLEPIOS Klinik St. Georg", "lat": 53.559731, "lon": 10.0180894, "city": "Hamburg", "state": "Hamburg"}, {"name": "MEDIAN Klinik Gr\u00fcnheide Fach-KH f\u00fcr neurolog. Fr\u00fcreha. Phase B", "lat": 52.4239444, "lon": 13.8131952, "city": "Gr\u00fcnheide (Mark)", "state": "Brandenburg"}, {"name": "Bethlehem Gesundheitszentrum Stolberg gGmbH", "lat": 50.7727068, "lon": 6.2289172, "city": "Stolberg (Rheinland)", "state": "Nordrhein-Westfalen"}, {"name": "Helios Klinikum Wuppertal", "lat": 51.2752817, "lon": 7.1738834, "city": "Wuppertal", "state": "Nordrhein-Westfalen"}, {"name": "Berufsgenossenschaftliche Kliniken Bergmannstrost Halle", "lat": 51.4602457, "lon": 11.9865819, "city": "Halle (Saale)", "state": "Sachsen-Anhalt"}, {"name": "Klinikum Hochsauerland GmbH", "lat": 51.425983, "lon": 7.9996734, "city": "Arnsberg, Westfalen", "state": "Nordrhein-Westfalen"}, {"name": "Immanuel Klinik R\u00fcdersdorf", "lat": 52.4546198, "lon": 13.7729168, "city": "R\u00fcdersdorf bei Berlin", "state": "Brandenburg"}, {"name": "Evangelisches Krankenhaus Paul-Gerhardt-Stift", "lat": 52.5625389, "lon": 13.1560605, "city": "Lutherstadt Wittenberg", "state": "Sachsen-Anhalt"}, {"name": "Regio Kliniken GmbH", "lat": 53.6540488, "lon": 9.81189, "city": "Pinneberg", "state": "Schleswig-Holstein"}, {"name": "Medical Park Bad Camberg", "lat": 50.2974825, "lon": 8.2828246, "city": "Bad Camberg", "state": "Hessen"}, {"name": "Klinikum Bayreuth GmbH", "lat": 49.9435669, "lon": 11.5323759, "city": "Bayreuth", "state": "Bayern"}, {"name": "Helios Klinikum Schwelm GmbH", "lat": 51.2937271, "lon": 7.3123069, "city": "Schwelm", "state": "Nordrhein-Westfalen"}, {"name": "Kreiskrankenhaus Greiz GmbH", "lat": 50.6628684, "lon": 12.1990258, "city": "Greiz", "state": "Th\u00fcringen"}, {"name": "St. Vinzenz Klinik Pfronten im Allg\u00e4u GmbH", "lat": 47.5843258, "lon": 10.5560213, "city": "Pfronten", "state": "Bayern"}, {"name": "Marien-Hospital Euskirchen GmbH", "lat": 50.6424263, "lon": 6.7910058, "city": "Euskirchen", "state": "Nordrhein-Westfalen"}, {"name": "Kliniken an der Paar Krankenhaus Friedberg", "lat": 48.3564008, "lon": 10.9863269, "city": "Friedberg", "state": "Bayern"}, {"name": "Klinikum Bayreuth GmbH", "lat": 49.9684122, "lon": 11.5839674, "city": "Bayreuth", "state": "Bayern"}, {"name": "Klinikum Wolfsburg", "lat": 52.4135714, "lon": 10.7683863, "city": "Wolfsburg", "state": "Niedersachsen"}, {"name": "Universit\u00e4tsklinikum Heidelberg", "lat": 49.4130517, "lon": 8.6696257, "city": "Heidelberg", "state": "Baden-W\u00fcrttemberg"}, {"name": "Kreiskrankenhaus Wolgast", "lat": 54.0523505, "lon": 13.7659644, "city": "Wolgast", "state": "Mecklenburg-Vorpommern"}, {"name": "Klinikum Magdeburg gGmbH", "lat": 52.157752, "lon": 11.5817958, "city": "Magdeburg", "state": "Sachsen-Anhalt"}, {"name": "Nierenzentrum Heidelberg", "lat": 49.4141468, "lon": 8.665817, "city": "Heidelberg", "state": "Baden-W\u00fcrttemberg"}, {"name": "Diakonissen-Stiftungs-Krankenhaus Speyer", "lat": 49.3109941, "lon": 8.4346812, "city": "Speyer", "state": "Rheinland-Pfalz"}, {"name": "Kliniken des Landkreises Bamberg", "lat": 49.978936, "lon": 11.0379438, "city": "Burgebrach", "state": "Bayern"}, {"name": "MEDIAN Klinik Berus", "lat": 51.099723, "lon": 6.8161483, "city": "\u00dcberherrn-Berus", "state": "Saarland"}, {"name": "Ev. Krankenhaus Mettmann GmbH", "lat": 51.2505231, "lon": 6.9698152, "city": "Mettmann", "state": "Nordrhein-Westfalen"}, {"name": "Martin-Luther-Universit\u00e4t Halle-Wittenberg, Universit\u00e4tsklinikum Halle (Saale)", "lat": 51.5017665, "lon": 11.936832, "city": "Halle (Saale)", "state": "Sachsen-Anhalt"}, {"name": "Sana Kliniken L\u00fcbeck GmbH", "lat": 51.5274084, "lon": 14.000652, "city": "L\u00fcbeck", "state": "Schleswig-Holstein"}, {"name": "GPR Klinikum R\u00fcsselsheim", "lat": 49.9828613, "lon": 8.4251799, "city": "R\u00fcsselsheim", "state": "Hessen"}, {"name": "Klinikum Nordfriesland gGmbH - Klinik Husum und Klinik Nieb\u00fcll", "lat": 54.4833158, "lon": 9.050167, "city": "Husum", "state": "Schleswig-Holstein"}, {"name": "Kliniken Dr. Erler gGmbH Fachkrankenhaus f\u00fcr Orthop\u00e4die und Chirurgie", "lat": 49.453782, "lon": 11.0676359, "city": "N\u00fcrnberg", "state": "Bayern"}, {"name": "Klinikum Esslingen", "lat": 48.7374468, "lon": 9.3263819, "city": "Esslingen am Neckar", "state": "Baden-W\u00fcrttemberg"}, {"name": "Gesundheitszentrum Bitterfeld/Wolfen gGmbH", "lat": 51.6338047, "lon": 12.3338957, "city": "Bitterfeld", "state": "Sachsen-Anhalt"}, {"name": "Oberberg Fachklinik Rhein-Jura", "lat": 52.4986248, "lon": 13.333455, "city": "Bad S\u00e4ckingen", "state": "Baden-W\u00fcrttemberg"}, {"name": "Klinikum Peine gGmbH", "lat": 52.3013824, "lon": 10.2390635, "city": "Peine", "state": "Niedersachsen"}, {"name": "Lungenklinik Neustadt", "lat": 51.5601724, "lon": 10.8401532, "city": "Harztor-Neustadt", "state": "Th\u00fcringen"}, {"name": "St. Georg Klinikum Eisenach gGmbH", "lat": 50.9885958, "lon": 10.316079, "city": "Eisenach", "state": "Th\u00fcringen"}, {"name": "Bezirksklinikum Regensburg", "lat": 48.9979343, "lon": 12.08788, "city": "Regensburg", "state": "Bayern"}, {"name": "Krankenhaus Vilsbiburg", "lat": 48.4449008, "lon": 12.3602427, "city": "Vilsbiburg", "state": "Bayern"}, {"name": "Zentrum f\u00fcr Psychiatrie Emmendingen", "lat": 48.1153595, "lon": 7.8685622, "city": "Freiburg im Breisgau", "state": "Baden-W\u00fcrttemberg"}, {"name": "Psychiatrisches Zentrum Nordbaden Zentrum f\u00fcr Psychiatrie Wiesloch", "lat": 49.3035368, "lon": 8.7066767, "city": "Wiesloch", "state": "Baden-W\u00fcrttemberg"}, {"name": "St\u00e4dtisches Klinikum Braunschweig", "lat": 52.2379093, "lon": 10.5476076, "city": "Braunschweig", "state": "Niedersachsen"}, {"name": "Bezirksklinikum Obermain", "lat": 50.0494937, "lon": 10.9712418, "city": "Coburg", "state": "Bayern"}, {"name": "Universit\u00e4tsklinikum K\u00f6ln A\u00f6R", "lat": 50.9251984, "lon": 6.919302, "city": "K\u00f6ln", "state": "Nordrhein-Westfalen"}, {"name": "Bergmannsheil und Kinderklinik Buer gGmbH", "lat": 51.5707569, "lon": 7.0606777, "city": "Gelsenkirchen", "state": "Nordrhein-Westfalen"}, {"name": "KRH-Klinikum Robert Koch Gehrden", "lat": 52.3040407, "lon": 9.5978338, "city": "Gehrden", "state": "Niedersachsen"}, {"name": "KRH-Klinikum Nordstadt", "lat": 52.3801602, "lon": 9.9838359, "city": "Hannover", "state": "Niedersachsen"}, {"name": "Helios Klinikum Erfurt GmbH", "lat": 50.9926769, "lon": 11.0130251, "city": "Erfurt", "state": "Th\u00fcringen"}, {"name": "St\u00e4dtisches Klinikum L\u00fcneburg gGmbH", "lat": 53.2402005, "lon": 10.3952503, "city": "L\u00fcneburg", "state": "Niedersachsen"}, {"name": "AGAPLESION Diakonieklinikum Rotenburg gGmbH", "lat": 53.10524, "lon": 9.4134232, "city": "Rotenburg (W\u00fcmme)", "state": "Niedersachsen"}, {"name": "Klinikum Mutterhaus der Borrom\u00e4erinnen Trier", "lat": 49.7543938, "lon": 6.6310015, "city": "Trier", "state": "Rheinland-Pfalz"}, {"name": "Vitos Gie\u00dfen-Marburg gGmbH", "lat": 50.5773934, "lon": 8.7011438, "city": "Gie\u00dfen", "state": "Hessen"}, {"name": "Helios Klinikum Gifhorn GmbH", "lat": 52.4227073, "lon": 13.2541807, "city": "Gifhorn", "state": "Niedersachsen"}, {"name": "ASKLEPIOS Paulinen Klinik Wiesbaden", "lat": 50.0718304, "lon": 8.2269773, "city": "Wiesbaden", "state": "Hessen"}, {"name": "St.-Antonius-Hospital gGmbH Eschweiler", "lat": 50.8184661, "lon": 6.2642569, "city": "Eschweiler, Rheinland", "state": "Nordrhein-Westfalen"}, {"name": "AWO Fachkrankenhaus Jerichow", "lat": 51.9041114, "lon": 11.7681742, "city": "Burg bei Magdeburg", "state": "Sachsen-Anhalt"}, {"name": "Krankenhaus St. Barbara Schwandorf", "lat": 49.3162602, "lon": 12.1139443, "city": "Schwandorf", "state": "Bayern"}, {"name": "LVR-Klinik Viersen", "lat": 51.2911266, "lon": 6.3550015, "city": "Krefeld", "state": "Nordrhein-Westfalen"}, {"name": "Universit\u00e4tsklinikum Magdeburg", "lat": 52.129445, "lon": 11.6177219, "city": "Magdeburg", "state": "Sachsen-Anhalt"}, {"name": "LVR-Klinik M\u00f6nchengladbach", "lat": 51.1712076, "lon": 6.4372446, "city": "M\u00f6nchengladbach", "state": "Nordrhein-Westfalen"}, {"name": "Kliniken des Landkreises L\u00f6rrach", "lat": 47.6143421, "lon": 7.6583697, "city": "L\u00f6rrach", "state": "Baden-W\u00fcrttemberg"}, {"name": "AKK Altonaer Kinderkrankenhaus gGmbH", "lat": 53.5521531, "lon": 9.9130178, "city": "Hamburg", "state": "Hamburg"}, {"name": "Gemeinschaftsklinikum Mittelrhein gGmbH", "lat": 50.3561716, "lon": 7.565562, "city": "Koblenz", "state": "Rheinland-Pfalz"}, {"name": "DIAKOVERE Annastift", "lat": 52.3707439, "lon": 9.8098058, "city": "Hannover", "state": "Niedersachsen"}, {"name": "MEDIAN Klinik Odenwald - Fachkrankenhaus", "lat": 49.8309063, "lon": 9.0155212, "city": "Breuberg", "state": "Hessen"}, {"name": "Klinikum Lippe GmbH", "lat": 51.9412451, "lon": 8.8797905, "city": "Detmold", "state": "Nordrhein-Westfalen"}, {"name": "St\u00e4dtisches Klinikum Dessau", "lat": 51.8373598, "lon": 12.2265922, "city": "Dessau-Ro\u00dflau", "state": "Sachsen-Anhalt"}, {"name": "ASKLEPIOS Klinik Sankt Augustin GmbH", "lat": 50.7755886, "lon": 7.1816343, "city": "Sankt Augustin", "state": "Nordrhein-Westfalen"}, {"name": "Vivantes Komfortklinik GmbH", "lat": 52.4620771, "lon": 13.3465501, "city": "Berlin", "state": "Berlin"}, {"name": "Klinikum Dortmund gGmbH", "lat": 51.5083612, "lon": 7.4574824, "city": "Dortmund", "state": "Nordrhein-Westfalen"}, {"name": "DRK Krankenhaus Chemnitz-Rabenstein", "lat": 50.8208895, "lon": 12.8250637, "city": "Chemnitz", "state": "Sachsen"}, {"name": "Gemeinschaftskrankenhaus Herdecke", "lat": 51.4111022, "lon": 7.3989687, "city": "Herdecke, Ruhr", "state": "Nordrhein-Westfalen"}, {"name": "ASKLEPIOS Klinik Barmbek", "lat": 53.6065667, "lon": 10.0367453, "city": "Hamburg", "state": "Hamburg"}, {"name": "m&i-Fachklinik Bad Liebenstein", "lat": 50.8139394, "lon": 10.3539811, "city": "Bad Liebenstein", "state": "Th\u00fcringen"}, {"name": "Sch\u00f6n Klinik Rendsburg-Eckernf\u00f6rde SE & Co. KG", "lat": 54.2972507, "lon": 9.6575501, "city": "Rendsburg", "state": "Schleswig-Holstein"}, {"name": "Rhein-Maas Klinikum GmbH", "lat": 50.8146199, "lon": 6.14266, "city": "W\u00fcrselen", "state": "Nordrhein-Westfalen"}, {"name": "Universit\u00e4tsmedizin Rostock", "lat": 54.0900578, "lon": 12.1200091, "city": "Rostock", "state": "Mecklenburg-Vorpommern"}, {"name": "KMG Klinikum Luckenwalde", "lat": 53.148881, "lon": 12.1692118, "city": "Luckenwalde", "state": "Brandenburg"}, {"name": "Universit\u00e4tsmedizin Rostock", "lat": 54.1013841, "lon": 12.1332011, "city": "Rostock", "state": "Mecklenburg-Vorpommern"}, {"name": "LVR-Klinik D\u00fcren", "lat": 50.8169127, "lon": 6.4829758, "city": "D\u00fcren, Rheinland", "state": "Nordrhein-Westfalen"}, {"name": "Universit\u00e4tsmedizin Rostock", "lat": 54.0842389, "lon": 12.1014314, "city": "Rostock", "state": "Mecklenburg-Vorpommern"}, {"name": "Universit\u00e4tsmedizin Rostock", "lat": 54.0902862, "lon": 12.1197286, "city": "Rostock", "state": "Mecklenburg-Vorpommern"}, {"name": "Krankenhaus D\u00fcren gGmbH", "lat": 50.8081304, "lon": 6.4978276, "city": "D\u00fcren, Rheinland", "state": "Nordrhein-Westfalen"}, {"name": "Benedictus Krankenhaus Tutzing GmbH & Co. KG", "lat": 47.9070289, "lon": 11.2766051, "city": "Tutzing", "state": "Bayern"}, {"name": "MEDIAN Klinik Berus", "lat": 52.1991657, "lon": 8.7907481, "city": "\u00dcberherrn-Berus", "state": "Saarland"}, {"name": "Johanniter - Klinik f\u00fcr Geriatrie Geesthacht", "lat": 52.1995132, "lon": 8.7890577, "city": "Geesthacht", "state": "Schleswig-Holstein"}, {"name": "ASKLEPIOS Klinik Parchim", "lat": 53.9217282, "lon": 10.6996153, "city": "Parchim", "state": "Mecklenburg-Vorpommern"}, {"name": "MEDIAN Klinik NRZ Wiesbaden", "lat": 50.091484, "lon": 8.2662392, "city": "Wiesbaden", "state": "Hessen"}, {"name": "Universit\u00e4tsklinikum Erlangen", "lat": 49.5983319, "lon": 11.0143043, "city": "Erlangen", "state": "Bayern"}, {"name": "Klinikum Landau-S\u00fcdliche Weinstra\u00dfe", "lat": 49.205821, "lon": 8.1040769, "city": "Landau in der Pfalz", "state": "Rheinland-Pfalz"}, {"name": "Niels-Stensen-Kliniken St. Vinzenz-Hospital Hasel\u00fcnne", "lat": 52.2702301, "lon": 8.0537541, "city": "Hasel\u00fcnne", "state": "Niedersachsen"}, {"name": "Diakonie Krankenhaus Kirn", "lat": 49.7945675, "lon": 7.455733, "city": "Kirn", "state": "Rheinland-Pfalz"}, {"name": "Thoraxklinik Heidelberg", "lat": 49.4089796, "lon": 8.6905265, "city": "Heidelberg", "state": "Baden-W\u00fcrttemberg"}, {"name": "Bezirksklinikum Ansbach", "lat": 49.2937963, "lon": 10.5508941, "city": "Ansbach", "state": "Bayern"}, {"name": "St. Josefskrankenhaus Freiburg", "lat": 47.9829574, "lon": 7.8398958, "city": "Freiburg", "state": "Baden-W\u00fcrttemberg"}, {"name": "Oberlausitz-Kliniken GmbH, Krankenhaus Bischofswerda", "lat": 51.1361328, "lon": 14.1785653, "city": "Bischofswerda", "state": "Sachsen"}, {"name": "Helios Klinikum Bad Saarow", "lat": 52.1544926, "lon": 10.3180927, "city": "Bad Saarow", "state": "Brandenburg"}, {"name": "Ilm-Kreis-Kliniken Arnstadt-Ilmenau gGmbH", "lat": 50.6787084, "lon": 10.9176093, "city": "Ilmenau", "state": "Th\u00fcringen"}, {"name": "Marienhospital Stuttgart", "lat": 51.7179384, "lon": 8.7593034, "city": "Stuttgart", "state": "Baden-W\u00fcrttemberg"}, {"name": "Br\u00fcderkrankenhaus St. Josef Paderborn", "lat": 51.7104939, "lon": 8.7593553, "city": "Paderborn", "state": "Nordrhein-Westfalen"}, {"name": "Waldburg-Zeil Kliniken GmbH & Co. Rheumaklinik KG", "lat": 47.5912573, "lon": 11.0757529, "city": "Oberammergau", "state": "Bayern"}, {"name": "St. Johannisstift Ev. Krankenhaus Paderborn gGmbH", "lat": 51.7229357, "lon": 8.7466193, "city": "Paderborn", "state": "Nordrhein-Westfalen"}, {"name": "Johannes Wesling Klinikum Minden", "lat": 52.2612497, "lon": 8.8889772, "city": "Minden, Westfalen", "state": "Nordrhein-Westfalen"}, {"name": "Helios Klinik M\u00fcllheim", "lat": 50.0873694, "lon": 8.2746649, "city": "M\u00fcllheim", "state": "Baden-W\u00fcrttemberg"}, {"name": "AMEOS Klinika Neustadt, L\u00fcbeck und Eutin", "lat": 54.1049743, "lon": 10.7947738, "city": "Neustadt in Holstein", "state": "Schleswig-Holstein"}, {"name": "ASKLEPIOS Fachklinikum Brandenburg", "lat": 52.4230806, "lon": 12.4800832, "city": "Brandenburg an der Havel", "state": "Brandenburg"}, {"name": "Universit\u00e4tsklinikum Brandenburg an der Havel GmbH", "lat": 52.413799, "lon": 12.5460727, "city": "Brandenburg an der Havel", "state": "Brandenburg"}, {"name": "Psychiatrische Klinik L\u00fcneburg gemeinn\u00fctzige GmbH", "lat": 53.2547977, "lon": 10.3827527, "city": "L\u00fcneburg", "state": "Niedersachsen"}, {"name": "Furtbachkrankenhaus, Klinik f\u00fcr Psychiatrie und Psychotherapie", "lat": 48.7703861, "lon": 9.1716672, "city": "Stuttgart", "state": "Baden-W\u00fcrttemberg"}, {"name": "Westpfalz-Klinikum", "lat": 49.4414066, "lon": 7.7563994, "city": "Kaiserslautern", "state": "Rheinland-Pfalz"}, {"name": "DRK-Krankenhaus Mecklenburg-Strelitz gGmbH", "lat": 53.3802546, "lon": 13.0525352, "city": "Neustrelitz", "state": "Mecklenburg-Vorpommern"}, {"name": "m&i-Fachklinik Herzogenaurach", "lat": 49.577045, "lon": 10.8696715, "city": "Herzogenaurach", "state": "Bayern"}, {"name": "St. Johannes-Hospital", "lat": 53.3920093, "lon": 8.1398593, "city": "Varel, Jadebusen", "state": "Niedersachsen"}, {"name": "Paracelsus Klinik am Silbersee", "lat": 50.7223559, "lon": 12.4715842, "city": "Langenhagen", "state": "Niedersachsen"}, {"name": "Paracelsus-Klinik Bremen GmbH", "lat": 51.2544319, "lon": 6.7595047, "city": "Bremen", "state": "Bremen"}, {"name": "Universit\u00e4tsklinikum Mannheim", "lat": 49.492365, "lon": 8.4875557, "city": "Mannheim", "state": "Baden-W\u00fcrttemberg"}, {"name": "Helios Klinikum Aue GmbH", "lat": 50.5923528, "lon": 12.7165337, "city": "Aue", "state": "Sachsen"}, {"name": "Klinik Hohe Mark", "lat": 50.2113353, "lon": 8.5306464, "city": "Oberursel", "state": "Hessen"}, {"name": "Sana Klinikum Lichtenberg", "lat": 52.5133024, "lon": 13.4954295, "city": "Berlin", "state": "Berlin"}, {"name": "Helios Kliniken Kassel", "lat": 51.3114072, "lon": 9.4546822, "city": "Kassel", "state": "Hessen"}, {"name": "Mauritius Therapieklinik gGmbH", "lat": 51.2795469, "lon": 6.6277459, "city": "Meerbusch", "state": "Nordrhein-Westfalen"}, {"name": "St. Josef-Stift Sendenhorst", "lat": 51.8414284, "lon": 7.8211426, "city": "Sendenhorst", "state": "Nordrhein-Westfalen"}, {"name": "Gesundheit Nord gGmbH Klinikverbund Bremen Standort Klinikum Bremen-Mitte", "lat": 53.074096, "lon": 8.8391405, "city": "Bremen", "state": "Bremen"}, {"name": "Verbundkrankenhaus Bernkastel-Wittlich", "lat": 50.0001647, "lon": 6.8921278, "city": "Bernkastel-Kues", "state": "Rheinland-Pfalz"}, {"name": "Vivantes Netzwerk f\u00fcr Gesundheit GmbH", "lat": 52.4590155, "lon": 13.3902159, "city": "Berlin", "state": "Berlin"}, {"name": "Dominikus-Krankenhaus Berlin", "lat": 52.624691, "lon": 13.293987, "city": "Berlin", "state": "Berlin"}, {"name": "Migr\u00e4ne- und Kopfschmerzklinik K\u00f6nigstein", "lat": 50.1865419, "lon": 8.4561164, "city": "K\u00f6nigstein", "state": "Hessen"}, {"name": "SKH Gro\u00dfschweidnitz", "lat": 51.0741916, "lon": 14.643814, "city": "Gro\u00dfschweidnitz", "state": "Sachsen"}, {"name": "Kreisklinik Ebersberg gGmbH", "lat": 48.0763015, "lon": 11.9604668, "city": "Ebersberg", "state": "Bayern"}, {"name": "DIAKOVERE Henriettenstift", "lat": 52.3634111, "lon": 9.8285557, "city": "Hannover", "state": "Niedersachsen"}, {"name": "Krankenhaus St. Josef", "lat": 50.0471713, "lon": 10.2267527, "city": "Schweinfurt", "state": "Bayern"}, {"name": "LVR-Klinik D\u00fcren", "lat": 51.7596012, "lon": 6.1816625, "city": "Alsdorf", "state": "Nordrhein-Westfalen"}, {"name": "REGIOMED Klinikum Sonneberg/Neuhaus", "lat": 50.3539763, "lon": 11.162693, "city": "Sonneberg", "state": "Th\u00fcringen"}, {"name": "Israelitisches Krankenhaus Hamburg", "lat": 53.6058096, "lon": 9.9913652, "city": "Hamburg", "state": "Hamburg"}, {"name": "Wilhelmsburger Krankenhaus Gro\u00df-Sand", "lat": 53.5037044, "lon": 9.9863014, "city": "Hamburg", "state": "Hamburg"}, {"name": "Helios Klinikum M\u00fcnchen West", "lat": 54.5250832, "lon": 9.5663476, "city": "M\u00fcnchen", "state": "Bayern"}, {"name": "KRH-Klinikum Gro\u00dfburgwedel", "lat": 52.4963677, "lon": 9.8620387, "city": "Burgwedel", "state": "Niedersachsen"}, {"name": "Klinikum Dahme-Spreewald GmbH", "lat": 51.9442037, "lon": 13.8747771, "city": "L\u00fcbben (Spreewald)", "state": "Brandenburg"}, {"name": "Klinikum am Weissenhof", "lat": 49.1382951, "lon": 9.231798, "city": "Ludwigsburg", "state": "Baden-W\u00fcrttemberg"}, {"name": "Stadtklinik Frankenthal", "lat": 49.5427524, "lon": 8.3311728, "city": "Frankenthal (Pfalz)", "state": "Rheinland-Pfalz"}, {"name": "Vinzenzkrankenhaus", "lat": 52.3583668, "lon": 9.8147936, "city": "Hannover", "state": "Niedersachsen"}, {"name": "Elisabeth-Krankenhaus Kassel GmbH", "lat": 51.3099596, "lon": 9.4919159, "city": "Kassel", "state": "Hessen"}, {"name": "Regio Kliniken GmbH", "lat": 53.7525837, "lon": 9.6820928, "city": "Elmshorn", "state": "Schleswig-Holstein"}, {"name": "Helios Fachkliniken Hildburghausen GmbH", "lat": 50.4251195, "lon": 10.7419977, "city": "Hildburghausen", "state": "Th\u00fcringen"}, {"name": "DIAKOVERE Friederikenstift", "lat": 52.3711545, "lon": 9.7246093, "city": "Hannover", "state": "Niedersachsen"}, {"name": "St. Josefs-Hospital Wiesbaden", "lat": 50.0764411, "lon": 8.2544536, "city": "Wiesbaden", "state": "Hessen"}, {"name": "St. Josef Krankenhaus Moers", "lat": 51.5415036, "lon": 6.6082167, "city": "Rheinberg", "state": "Nordrhein-Westfalen"}, {"name": "Klinikum am Gesundbrunnen", "lat": 49.1532797, "lon": 9.19082, "city": "Heilbronn", "state": "Baden-W\u00fcrttemberg"}, {"name": "Helios Kliniken Mittelweser GmbH Klinik Nienburg", "lat": 52.6354926, "lon": 9.2244519, "city": "Nienburg", "state": "Niedersachsen"}, {"name": "Helios Klinik Lengerich", "lat": 48.102096, "lon": 11.6293096, "city": "Lengerich, Westfalen", "state": "Nordrhein-Westfalen"}, {"name": "ASKLEPIOS Klinikum Harburg", "lat": 53.4595927, "lon": 9.9477502, "city": "Hamburg", "state": "Hamburg"}, {"name": "Helios Klinikum Berlin-Buch", "lat": 51.1260573, "lon": 7.8975003, "city": "Berlin", "state": "Berlin"}, {"name": "Helios Klinikum M\u00fcnchen West", "lat": 48.8893019, "lon": 8.713055, "city": "M\u00fcnchen", "state": "Bayern"}, {"name": "Donau-Ries Kliniken", "lat": 48.8367871, "lon": 10.499842, "city": "N\u00f6rdlingen", "state": "Bayern"}, {"name": "Evangelisches Krankenhaus Witten gGmbH", "lat": 51.4459545, "lon": 7.3439016, "city": "Witten", "state": "Nordrhein-Westfalen"}, {"name": "Helios Klinikum Bad Saarow", "lat": 48.0310286, "lon": 7.5858317, "city": "Bad Saarow", "state": "Brandenburg"}, {"name": "ASKLEPIOS Harzklinik Goslar", "lat": 51.9278474, "lon": 10.4428702, "city": "Goslar", "state": "Niedersachsen"}, {"name": "VAMED Klinik Bad Berleburg", "lat": 52.0734351, "lon": 10.010782, "city": "Bad Berleburg", "state": "Nordrhein-Westfalen"}, {"name": "MEDIAN Klinik Bad Tennstedt", "lat": 52.07375, "lon": 10.0126957, "city": "Bad Tennstedt", "state": "Th\u00fcringen"}, {"name": "Krankenhaus Martha-Maria", "lat": 49.4818066, "lon": 11.1365651, "city": "N\u00fcrnberg", "state": "Bayern"}, {"name": "Luisenhospital Aachen", "lat": 50.7676232, "lon": 6.0764444, "city": "Aachen", "state": "Nordrhein-Westfalen"}, {"name": "ASKLEPIOS Fachklinikum L\u00fcbben", "lat": 51.9358187, "lon": 13.8867778, "city": "L\u00fcbben (Spreewald)", "state": "Brandenburg"}, {"name": "Helios Klinikum Meiningen GmbH", "lat": 50.5576351, "lon": 10.3970282, "city": "Meiningen", "state": "Th\u00fcringen"}, {"name": "Marienhospital Aachen GmbH", "lat": 50.7626072, "lon": 6.0948822, "city": "Aachen", "state": "Nordrhein-Westfalen"}, {"name": "Hunsr\u00fcck Klinik", "lat": 49.980508, "lon": 7.5174576, "city": "Simmern, Hunsr\u00fcck", "state": "Rheinland-Pfalz"}, {"name": "Herz-Jesu-Krankenhaus Dernbach", "lat": 50.4529747, "lon": 7.7856144, "city": "Dernbach (Westerwald)", "state": "Rheinland-Pfalz"}, {"name": "Herz- und Diabeteszentrum Nordrhein-Westfalen", "lat": 52.1921497, "lon": 8.7952165, "city": "Bad Oeynhausen", "state": "Nordrhein-Westfalen"}, {"name": "St\u00e4dtische Klinikum Karlsruhe", "lat": 49.0118897, "lon": 8.3803361, "city": "Karlsruhe", "state": "Baden-W\u00fcrttemberg"}, {"name": "Katholische Kliniken im M\u00e4rkischen Kreis, Iserlohn", "lat": 51.3796535, "lon": 7.6907257, "city": "Iserlohn", "state": "Nordrhein-Westfalen"}, {"name": "gKU Wertachkliniken Wertachklinik Bobingen", "lat": 48.2812909, "lon": 10.8224893, "city": "Bobingen", "state": "Bayern"}, {"name": "SRH Klinikum Naumburg", "lat": 51.0307959, "lon": 12.1593894, "city": "Zeitz", "state": "Sachsen-Anhalt"}, {"name": "Klinik Diepholz", "lat": 52.6107025, "lon": 8.3763261, "city": "Diepholz", "state": "Niedersachsen"}, {"name": "Klinikum Oberberg", "lat": 51.0155028, "lon": 7.5674969, "city": "Gummersbach", "state": "Nordrhein-Westfalen"}, {"name": "Muldentalkliniken, Standort Wurzen", "lat": 51.3789686, "lon": 12.7323531, "city": "Wurzen", "state": "Sachsen"}, {"name": "Rommel-Klinik", "lat": 48.7477428, "lon": 8.5455201, "city": "Bad Wildbad im Schwarzwald", "state": "Baden-W\u00fcrttemberg"}, {"name": "Elisabeth-Klinik gGmbH", "lat": 51.3568243, "lon": 8.47311, "city": "Olsberg", "state": "Nordrhein-Westfalen"}, {"name": "Dreifaltigkeits-Hospital gGmbH", "lat": 51.6730396, "lon": 8.3383455, "city": "Lippstadt", "state": "Nordrhein-Westfalen"}, {"name": "Kliniken Schmieder Heidelberg (Akutklinik)", "lat": 49.3953953, "lon": 8.7086102, "city": "Heidelberg", "state": "Baden-W\u00fcrttemberg"}, {"name": "AMEOS Klinikum Haldensleben", "lat": 52.2855412, "lon": 11.3769246, "city": "Haldensleben", "state": "Sachsen-Anhalt"}, {"name": "Klinikum Stadt Soest gGmbH", "lat": 51.5655545, "lon": 8.0775502, "city": "Soest, Westfalen", "state": "Nordrhein-Westfalen"}, {"name": "SALUS gGmbH Fachklinikum Uchtspringe", "lat": 52.5353131, "lon": 11.5957921, "city": "Stendal", "state": "Sachsen-Anhalt"}, {"name": "OsteMed Klinik Bremerv\u00f6rde", "lat": 53.4712107, "lon": 9.1352767, "city": "Bremerv\u00f6rde", "state": "Niedersachsen"}, {"name": "Klinikum Leer gGmbH", "lat": 53.2358311, "lon": 7.4582025, "city": "Leer", "state": "Niedersachsen"}, {"name": "Niels-Stensen-Kliniken Bramsche", "lat": 52.408985, "lon": 7.9860891, "city": "Bramsche, Hase", "state": "Niedersachsen"}, {"name": "Klinikum am Plattenwald", "lat": 49.2117124, "lon": 9.2371254, "city": "Bad Friedrichshall", "state": "Baden-W\u00fcrttemberg"}, {"name": "ASKLEPIOS Kliniken Schildautal Seesen", "lat": 51.8830065, "lon": 10.2162063, "city": "Seesen", "state": "Niedersachsen"}, {"name": "Klinikum Heidenheim", "lat": 48.6728848, "lon": 10.1402641, "city": "Heidenheim an der Brenz", "state": "Baden-W\u00fcrttemberg"}, {"name": "Helios Spital \u00dcberlingen", "lat": 51.3524293, "lon": 6.6481433, "city": "\u00dcberlingen", "state": "Baden-W\u00fcrttemberg"}, {"name": "Helios Klinik Leezen GmbH", "lat": 53.6603217, "lon": 11.4908986, "city": "Leezen", "state": "Mecklenburg-Vorpommern"}, {"name": "Einbecker B\u00fcrgerspital GmbH", "lat": 51.8338789, "lon": 9.8685914, "city": "Einbeck", "state": "Niedersachsen"}, {"name": "Kliniken im Theodor-Wenzel-Werk", "lat": 52.4226335, "lon": 13.2052083, "city": "Berlin", "state": "Berlin"}, {"name": "Krankenhaus zum Guten Hirten", "lat": 49.4878476, "lon": 8.3847325, "city": "Ludwigshafen am Rhein", "state": "Rheinland-Pfalz"}, {"name": "Helios Klinikum Niederberg", "lat": 51.3504926, "lon": 7.0116404, "city": "Heiligenhaus", "state": "Nordrhein-Westfalen"}, {"name": "Evangelische Klinikum Niederrhein gGmbH", "lat": 51.558391, "lon": 6.7302513, "city": "Duisburg", "state": "Nordrhein-Westfalen"}, {"name": "Dr. von Ehrenwall\u00b4sche Klinik", "lat": 50.539677, "lon": 7.0914368, "city": "Bad Neuenahr-Ahrweiler", "state": "Rheinland-Pfalz"}, {"name": "Augusta-Kranken-Anstalt gGmbH", "lat": 51.4851446, "lon": 7.2237617, "city": "Bochum", "state": "Nordrhein-Westfalen"}, {"name": "Hessing Stiftung Orthop\u00e4dische Fachkliniken", "lat": 48.3399957, "lon": 10.8662448, "city": "Augsburg", "state": "Bayern"}, {"name": "KRH-Klinikum Nordstadt", "lat": 52.4936292, "lon": 9.4660912, "city": "Hannover", "state": "Niedersachsen"}, {"name": "Kliniken Schmieder Allensbach", "lat": 47.715273, "lon": 9.0834563, "city": "Allensbach", "state": "Baden-W\u00fcrttemberg"}, {"name": "St. Elisabeth Krankenhaus Geilenkirchen", "lat": 50.9657287, "lon": 6.1237685, "city": "Geilenkirchen", "state": "Nordrhein-Westfalen"}, {"name": "Klinikum Region Hannover GmbH Psychiatrie Langenhagen", "lat": 52.4447989, "lon": 9.7425755, "city": "Langenhagen", "state": "Niedersachsen"}, {"name": "Klinikum Region Hannover GmbH Psychiatrie Langenhagen", "lat": 52.4428733, "lon": 9.7398248, "city": "Langenhagen", "state": "Niedersachsen"}, {"name": "Kreiskrankenhaus des Vogelsbergkreises in Alsfeld", "lat": 50.7630268, "lon": 9.268783, "city": "Alsfeld", "state": "Hessen"}, {"name": "Klinikverbund Allg\u00e4u gGmbH Klinik Kempten", "lat": 47.7324861, "lon": 10.3025829, "city": "Kempten (Allg\u00e4u)", "state": "Bayern"}, {"name": "Sch\u00f6n Klinik Neustadt", "lat": 54.0903332, "lon": 10.8291532, "city": "Neustadt in Holstein", "state": "Schleswig-Holstein"}, {"name": "Ubbo-Emmius-Klinik Aurich", "lat": 53.4680486, "lon": 7.4987328, "city": "Aurich (Ostfriesland)", "state": "Niedersachsen"}, {"name": "Kreiskliniken Kassel", "lat": 51.4960055, "lon": 9.3694127, "city": "Hofgeismar", "state": "Hessen"}, {"name": "Krankenhaus Eichhof", "lat": 50.6303978, "lon": 9.3913864, "city": "Lauterbach", "state": "Hessen"}, {"name": "St. Marienkrankenhaus und St. Annastiftskrankenhaus Ludwigshafen", "lat": 49.4633362, "lon": 8.4310204, "city": "Ludwigshafen am Rhein", "state": "Rheinland-Pfalz"}, {"name": "m&i-Fachklinik Bad Heilbrunn", "lat": 47.7493784, "lon": 11.4602813, "city": "Bad Heilbrunn", "state": "Bayern"}, {"name": "Klinikum Bremerhaven-Reinkenheide gGmbH", "lat": 53.5377387, "lon": 8.6365604, "city": "Bremerhaven", "state": "Bremen"}, {"name": "ASKLEPIOS Klinik Nord", "lat": 53.6740744, "lon": 10.0078292, "city": "Hamburg", "state": "Hamburg"}, {"name": "Marien Hospital D\u00fcsseldorf GmbH", "lat": 51.2359753, "lon": 6.7855856, "city": "D\u00fcsseldorf", "state": "Nordrhein-Westfalen"}, {"name": "Universit\u00e4tsmedizin Rostock", "lat": 54.0854001, "lon": 12.103483, "city": "Rostock", "state": "Mecklenburg-Vorpommern"}, {"name": "Klinikum Mittelbaden Baden-Baden B\u00fchl", "lat": 48.6646757, "lon": 8.135317, "city": "Baden-Baden", "state": "Baden-W\u00fcrttemberg"}, {"name": "ASKLEPIOS Harzklinik Bad Harzburg", "lat": 51.885651, "lon": 10.5759017, "city": "Bad Harzburg", "state": "Niedersachsen"}, {"name": "\u00d6kumenisches Hainich Klinikum gGmbH", "lat": 51.2093503, "lon": 10.4016343, "city": "M\u00fchlhausen", "state": "Th\u00fcringen"}, {"name": "Klinikum G\u00fctersloh gGmbH", "lat": 51.8974159, "lon": 8.3850347, "city": "G\u00fctersloh", "state": "Nordrhein-Westfalen"}, {"name": "SRH Klinikum Naumburg", "lat": 51.161012, "lon": 11.8148405, "city": "Naumburg (Saale)", "state": "Sachsen-Anhalt"}, {"name": "Krankenhaus Hardheim", "lat": 49.6116916, "lon": 9.4706125, "city": "Hardheim", "state": "Baden-W\u00fcrttemberg"}, {"name": "Thure von Uexkuell Krankenhaus", "lat": 48.0547463, "lon": 7.9640344, "city": "Glottertal", "state": "Baden-W\u00fcrttemberg"}, {"name": "Herzogin-Elisabeth-Hospital", "lat": 52.2329433, "lon": 10.5263304, "city": "Braunschweig", "state": "Niedersachsen"}, {"name": "AMEOS Klinikum Haldensleben", "lat": 51.5179265, "lon": 6.8449462, "city": "Haldensleben", "state": "Sachsen-Anhalt"}, {"name": "St. Nikolaus-Stiftshospital GmbH", "lat": 50.4403691, "lon": 7.4047616, "city": "Andernach", "state": "Rheinland-Pfalz"}, {"name": "Johanniter - Klinik f\u00fcr Geriatrie Geesthacht", "lat": 51.6791169, "lon": 7.8181886, "city": "Geesthacht", "state": "Schleswig-Holstein"}, {"name": "ASKLEPIOS Klinik Bad Oldesloe", "lat": 53.8124502, "lon": 10.3630352, "city": "Bad Oldesloe", "state": "Schleswig-Holstein"}, {"name": "Diakoneo Rangauklinik Ansbach GmbH Fachklinik f\u00fcr Lungen- und Bronchialheilkunde", "lat": 49.3258371, "lon": 10.5405994, "city": "Ansbach", "state": "Bayern"}, {"name": "Klinik Bad Trissl GmbH", "lat": 47.6579684, "lon": 12.1546945, "city": "Oberaudorf", "state": "Bayern"}, {"name": "Diabeteszentrum Bad Lauterberg Fachklinik f\u00fcr Diabetes und Stoffwechselkrankheiten", "lat": 51.6277331, "lon": 10.4724068, "city": "Bad Lauterberg im Harz", "state": "Niedersachsen"}, {"name": "Acura Kliniken Baden-Baden", "lat": 48.7642913, "lon": 8.2467357, "city": "Baden-Baden", "state": "Baden-W\u00fcrttemberg"}, {"name": "Klinikum Mittelbaden Baden-Baden B\u00fchl", "lat": 48.6852209, "lon": 8.1410833, "city": "B\u00fchl", "state": "Baden-W\u00fcrttemberg"}, {"name": "AMEOS Klinikum Seepark Geestland GmbH", "lat": 53.6161629, "lon": 8.6312159, "city": "Cuxhaven", "state": "Niedersachsen"}, {"name": "Kliniken an der Paar Krankenhaus Aichach", "lat": 48.4621547, "lon": 11.1403409, "city": "Aichach", "state": "Bayern"}, {"name": "Augenklinik Herzog Carl Theodor", "lat": 48.148444, "lon": 11.5503804, "city": "M\u00fcnchen", "state": "Bayern"}, {"name": "Caritasklinikum Saarbr\u00fccken St. Theresia", "lat": 49.2770456, "lon": 7.0412831, "city": "Saarbr\u00fccken", "state": "Saarland"}, {"name": "Fachklinik Freudenholm-Ruhleben", "lat": 54.2171158, "lon": 10.3107208, "city": "Schellhorn bei Preetz", "state": "Schleswig-Holstein"}, {"name": "Zollernalb Klinikum", "lat": 48.2139799, "lon": 9.0201268, "city": "Albstadt", "state": "Baden-W\u00fcrttemberg"}, {"name": "Sankt Gertrauden-Krankenhaus", "lat": 52.4803471, "lon": 13.3172076, "city": "Berlin", "state": "Berlin"}, {"name": "Christliches Kinderhospital Osnabr\u00fcck", "lat": 52.2698941, "lon": 8.0530625, "city": "Osnabr\u00fcck", "state": "Niedersachsen"}, {"name": "St\u00e4dtisches Klinikum G\u00f6rlitz gGmbH", "lat": 51.1612278, "lon": 14.9709757, "city": "G\u00f6rlitz", "state": "Sachsen"}, {"name": "Helios Hanseklinikum Stralsund GmbH", "lat": 54.3008526, "lon": 13.0412926, "city": "Stralsund", "state": "Mecklenburg-Vorpommern"}, {"name": "Helios Klinik Attendorn", "lat": 51.3648723, "lon": 6.7548584, "city": "Attendorn", "state": "Nordrhein-Westfalen"}, {"name": "Krankenhaus St. Joseph-Stift Bremen gGmbH", "lat": 53.0834231, "lon": 8.8350371, "city": "Bremen", "state": "Bremen"}, {"name": "AMEOS Klinikum L\u00fcbeck", "lat": 51.994362, "lon": 9.8328582, "city": "L\u00fcbeck", "state": "Schleswig-Holstein"}, {"name": "Sozialstiftung Bamberg", "lat": 49.8673665, "lon": 10.8906281, "city": "Bamberg", "state": "Bayern"}, {"name": "Universit\u00e4tsklinikum Erlangen", "lat": 49.6005976, "lon": 11.0110178, "city": "Erlangen", "state": "Bayern"}, {"name": "Klinikum Mittelbaden Baden-Baden B\u00fchl", "lat": 48.7842943, "lon": 8.2165185, "city": "Baden-Baden", "state": "Baden-W\u00fcrttemberg"}, {"name": "DRK-Krankenhaus Grevesm\u00fchlen gGmbH", "lat": 53.868473, "lon": 11.1831989, "city": "Grevesm\u00fchlen", "state": "Mecklenburg-Vorpommern"}, {"name": "Johanniter - Klinik f\u00fcr Geriatrie Geesthacht", "lat": 52.0854518, "lon": 9.7772029, "city": "Geesthacht", "state": "Schleswig-Holstein"}, {"name": "Klinikum Saarbr\u00fccken gGmbH", "lat": 49.2207818, "lon": 6.9962557, "city": "Saarbr\u00fccken", "state": "Saarland"}, {"name": "St. Franziskus-Hospital GmbH", "lat": 51.9612769, "lon": 7.650607, "city": "M\u00fcnster, Westfalen", "state": "Nordrhein-Westfalen"}, {"name": "Johanniter - Klinik f\u00fcr Geriatrie Geesthacht", "lat": 52.1161907, "lon": 9.7360844, "city": "Geesthacht", "state": "Schleswig-Holstein"}, {"name": "HNO-Klinik Bogenhausen Dr. Gaertner GmbH", "lat": 48.1438322, "lon": 11.6062594, "city": "M\u00fcnchen", "state": "Bayern"}, {"name": "Vulpius Klinik", "lat": 49.243801, "lon": 9.0926158, "city": "Bad Rappenau", "state": "Baden-W\u00fcrttemberg"}, {"name": "Schwarzwald-Baar Klinikum", "lat": 48.0651613, "lon": 8.4968196, "city": "Donaueschingen", "state": "Baden-W\u00fcrttemberg"}, {"name": "Kliniken Ostallg\u00e4u-Kaufbeuren, A\u00f6R des Landkreises Ostallg\u00e4u und der Stadt Kaufbeuren - Klinik F\u00fcssen", "lat": 47.8880445, "lon": 10.610967, "city": "F\u00fcssen", "state": "Bayern"}, {"name": "Helios Klinik K\u00f6then GmbH", "lat": 51.7467963, "lon": 11.9727939, "city": "K\u00f6then", "state": "Sachsen-Anhalt"}, {"name": "Dr. Lubos Kliniken Pasing", "lat": 48.14649, "lon": 11.4576537, "city": "M\u00fcnchen", "state": "Bayern"}, {"name": "Kliniken Schmieder Allensbach", "lat": 47.7023526, "lon": 8.7536698, "city": "Allensbach", "state": "Baden-W\u00fcrttemberg"}, {"name": "Marienkrankenhaus Kassel", "lat": 51.3281855, "lon": 9.4806551, "city": "Kassel", "state": "Hessen"}, {"name": "Kliniken des Landkreises Neustadt a. d. Aisch-Bad Windsheim", "lat": 49.5152189, "lon": 10.410694, "city": "Bad Windsheim", "state": "Bayern"}, {"name": "Klinikum Herford A\u00f6R", "lat": 52.1270427, "lon": 8.6998588, "city": "B\u00fcnde", "state": "Nordrhein-Westfalen"}, {"name": "Hochtaunus-Kliniken gGmbH", "lat": 50.3431342, "lon": 8.5306968, "city": "Usingen", "state": "Hessen"}, {"name": "Kreiskrankenhaus Weilburg", "lat": 50.4853636, "lon": 8.2526945, "city": "Weilburg", "state": "Hessen"}, {"name": "Erzgebirgsklinikum gGmbH - Haus Annaberg", "lat": 50.5926238, "lon": 13.0057168, "city": "Annaberg-Buchholz", "state": "Sachsen"}, {"name": "Aller-Weser-Klinik Krankenhaus Achim", "lat": 53.0179762, "lon": 9.0048071, "city": "Achim bei Bremen", "state": "Niedersachsen"}, {"name": "Klinikum Stuttgart", "lat": 48.7836788, "lon": 9.1719798, "city": "Stuttgart", "state": "Baden-W\u00fcrttemberg"}, {"name": "ASKLEPIOS Nordseeklinik Westerland GmbH", "lat": 54.9255215, "lon": 8.3132988, "city": "Westerland", "state": "Schleswig-Holstein"}, {"name": "Evangelisches Geriatriezentrum Berlin", "lat": 52.5545167, "lon": 13.3637902, "city": "Berlin", "state": "Berlin"}, {"name": "Ilm-Kreis-Kliniken Arnstadt-Ilmenau gGmbH", "lat": 50.8394141, "lon": 10.9414569, "city": "Arnstadt", "state": "Th\u00fcringen"}, {"name": "Krankenhaus f\u00fcr Psychiatrie, Psychoth. u. Psychosom. Medizin des Bezirks Unterfranken", "lat": 49.9887406, "lon": 9.568589, "city": "Aschaffenburg", "state": "Bayern"}, {"name": "Paracelsus Klinik am Silbersee", "lat": 52.4335377, "lon": 9.7572918, "city": "Langenhagen", "state": "Niedersachsen"}, {"name": "Vivantes Ida-Wolff-Krankenhaus GmbH", "lat": 52.4343409, "lon": 13.4578704, "city": "Berlin", "state": "Berlin"}, {"name": "Vivantes Netzwerk f\u00fcr Gesundheit GmbH", "lat": 52.4372561, "lon": 13.4588793, "city": "Berlin", "state": "Berlin"}, {"name": "Krankenhaus Lindenbrunn", "lat": 52.1100434, "lon": 9.5491034, "city": "Coppenbr\u00fcgge", "state": "Niedersachsen"}, {"name": "Paulinenkrankenhaus", "lat": 52.5077764, "lon": 13.233533, "city": "Berlin", "state": "Berlin"}, {"name": "Klinikum N\u00fcrnberg A\u00f6R", "lat": 49.4633165, "lon": 11.0603118, "city": "N\u00fcrnberg", "state": "Bayern"}, {"name": "Universit\u00e4tsklinikum Heidelberg", "lat": 49.4082582, "lon": 8.6863492, "city": "Heidelberg", "state": "Baden-W\u00fcrttemberg"}, {"name": "Klinikum St. Georg GmbH, Hauptstandort Leipzig Eutritzsch", "lat": 51.2941376, "lon": 12.4244653, "city": "Leipzig", "state": "Sachsen"}, {"name": "Universit\u00e4tsklinikum Heidelberg", "lat": 49.4158401, "lon": 8.6698214, "city": "Heidelberg", "state": "Baden-W\u00fcrttemberg"}, {"name": "St. Anna-Virngrund-Klinik Ellwangen", "lat": 48.957086, "lon": 10.1319759, "city": "Ellwangen", "state": "Baden-W\u00fcrttemberg"}, {"name": "Helios Klinikum Gifhorn GmbH", "lat": 52.4966591, "lon": 10.5463665, "city": "Gifhorn", "state": "Niedersachsen"}, {"name": "Evangelisches Krankenhaus Paul-Gerhardt-Stift", "lat": 51.8702739, "lon": 12.6558726, "city": "Lutherstadt Wittenberg", "state": "Sachsen-Anhalt"}, {"name": "GFO Kliniken Troisdorf", "lat": 50.7972676, "lon": 7.1171181, "city": "Troisdorf", "state": "Nordrhein-Westfalen"}, {"name": "Sch\u00f6n Klinik Lorsch", "lat": 47.9477622, "lon": 12.1882035, "city": "Lorsch", "state": "Hessen"}, {"name": "Paulinenkrankenhaus", "lat": 52.2990053, "lon": 7.1507594, "city": "Bad Bentheim", "state": "Niedersachsen"}, {"name": "GRN-Klinik Eberbach", "lat": 49.4632668, "lon": 8.9912202, "city": "Eberbach", "state": "Baden-W\u00fcrttemberg"}, {"name": "Kreiskrankenhaus Demmin GmbH", "lat": 53.9020319, "lon": 13.041648, "city": "Demmin", "state": "Mecklenburg-Vorpommern"}, {"name": "Sch\u00f6n Klinik Hamburg Eilbek", "lat": 53.577876, "lon": 10.0525289, "city": "Hamburg", "state": "Hamburg"}, {"name": "Kliniken Maria Hilf GmbH", "lat": 51.2190284, "lon": 6.4202787, "city": "M\u00f6nchengladbach", "state": "Nordrhein-Westfalen"}, {"name": "ASKLEPIOS Klinik Wandsbek", "lat": 53.5699129, "lon": 10.088317, "city": "Hamburg", "state": "Hamburg"}, {"name": "LVR-Klinik K\u00f6ln", "lat": 50.910327, "lon": 7.0169235, "city": "K\u00f6ln", "state": "Nordrhein-Westfalen"}, {"name": "m&i-Klinikgesellschaft in Ichenhausen GmbH", "lat": 48.3657536, "lon": 10.3086514, "city": "Ichenhausen", "state": "Bayern"}, {"name": "Klinikum Darmstadt", "lat": 49.8744006, "lon": 8.6461346, "city": "Darmstadt", "state": "Hessen"}, {"name": "ASKLEPIOS Klinik Nord", "lat": 53.6750137, "lon": 10.030373, "city": "Hamburg", "state": "Hamburg"}, {"name": "Theresienkrankenhaus und St. Hedwig-Klinik", "lat": 49.4896396, "lon": 8.4820619, "city": "Mannheim", "state": "Baden-W\u00fcrttemberg"}, {"name": "Kliniken Nordoberpfalz AG", "lat": 49.6808915, "lon": 12.1664627, "city": "Weiden i. d. OPf.", "state": "Bayern"}, {"name": "Klinikum Passau", "lat": 48.5698406, "lon": 13.4476155, "city": "Passau", "state": "Bayern"}, {"name": "AGAPLESION Bethesda Krankenhaus Bergedorf gGmbH", "lat": 53.4858345, "lon": 10.2360233, "city": "Hamburg", "state": "Hamburg"}, {"name": "Katholische Kliniken im M\u00e4rkischen Kreis, Iserlohn", "lat": 51.3710884, "lon": 7.6931512, "city": "Iserlohn", "state": "Nordrhein-Westfalen"}, {"name": "Klinikum Frankfurt H\u00f6chst", "lat": 50.1085926, "lon": 8.5464632, "city": "Frankfurt", "state": "Hessen"}, {"name": "Sana Klinikum Offenbach", "lat": 52.8113855, "lon": 13.0356444, "city": "Offenbach", "state": "Hessen"}, {"name": "Zentrum f\u00fcr Psychiatrie Calw", "lat": 48.7454956, "lon": 8.715852, "city": "Calw", "state": "Baden-W\u00fcrttemberg"}, {"name": "ASKLEPIOS Stadtklinik Bad Wildungen", "lat": 51.1171898, "lon": 9.1142051, "city": "Bad Wildungen", "state": "Hessen"}, {"name": "Augenklinik Berlin-Marzahn", "lat": 52.5142669, "lon": 13.5675803, "city": "Berlin", "state": "Berlin"}, {"name": "BG Klinikum Unfallkrankenhaus Berlin gGmbH", "lat": 52.5191371, "lon": 13.5685101, "city": "Berlin", "state": "Berlin"}, {"name": "Mariaberg - Fachkrankenhaus Kinder- und Jugendpsychiatrie", "lat": 48.2739922, "lon": 9.2105992, "city": "Gammertingen", "state": "Baden-W\u00fcrttemberg"}, {"name": "Therapiezentrum Burgau", "lat": 48.4355694, "lon": 10.4063958, "city": "Burgau", "state": "Bayern"}, {"name": "Helios Dr. Horst Schmidt Kliniken Wiesbaden", "lat": 50.0866424, "lon": 8.2699327, "city": "Wiesbaden", "state": "Hessen"}, {"name": "Vivantes Komfortklinik GmbH", "lat": 52.5067052, "lon": 13.5938632, "city": "Berlin", "state": "Berlin"}, {"name": "GRN-Klinik Weinheim", "lat": 49.5496706, "lon": 8.644652, "city": "Weinheim", "state": "Baden-W\u00fcrttemberg"}, {"name": "Helios Klinik Jerichower Land GmbH", "lat": 52.2646007, "lon": 11.832682, "city": "Burg", "state": "Sachsen-Anhalt"}, {"name": "St. Nikolaus-Hospital Wallerfangen", "lat": 49.3290932, "lon": 6.7129668, "city": "Lebach", "state": "Saarland"}, {"name": "Oberlausitzkliniken gGmbH, Krankenhaus Bautzen", "lat": 51.18456, "lon": 14.4309102, "city": "Bautzen", "state": "Sachsen"}, {"name": "Krankenhaus Martha-Maria", "lat": 48.0854315, "lon": 11.5348056, "city": "M\u00fcnchen", "state": "Bayern"}, {"name": "KRH-Klinikum Siloah", "lat": 52.3918895, "lon": 9.7143061, "city": "Hannover", "state": "Niedersachsen"}, {"name": "KMG Klinikum G\u00fcstrow GmbH", "lat": 52.9636219, "lon": 11.951825, "city": "G\u00fcstrow", "state": "Mecklenburg-Vorpommern"}, {"name": "Katholisches Klinikum Bochum gGmbH", "lat": 51.5198254, "lon": 7.2723217, "city": "Bochum", "state": "Nordrhein-Westfalen"}, {"name": "KJF Klinik Josefinum gGmbH", "lat": 48.3857169, "lon": 10.8749427, "city": "Augsburg", "state": "Bayern"}, {"name": "Universit\u00e4tsklinikum Augsburg A\u00f6R", "lat": 48.3059193, "lon": 10.9162796, "city": "Augsburg", "state": "Bayern"}, {"name": "Klinik ChiemseeWinkel Seebruck GmbH", "lat": 47.9327426, "lon": 12.4755506, "city": "Seeon-Seebruck", "state": "Bayern"}, {"name": "KMG Klinikum G\u00fcstrow GmbH", "lat": 53.8110887, "lon": 12.199513, "city": "G\u00fcstrow", "state": "Mecklenburg-Vorpommern"}, {"name": "Marienkrankenhaus Schwerte", "lat": 51.4439057, "lon": 7.5676702, "city": "Schwerte", "state": "Nordrhein-Westfalen"}, {"name": "St. Joseph-Krankenhaus Berlin Tempelhof", "lat": 52.478104, "lon": 13.3729563, "city": "Berlin", "state": "Berlin"}, {"name": "DRK-Krankenhaus Clementinenhaus", "lat": 52.3865243, "lon": 9.7450518, "city": "Hannover", "state": "Niedersachsen"}, {"name": "St. Josef Krankenhaus Moers", "lat": 51.4454856, "lon": 6.640518, "city": "Moers", "state": "Nordrhein-Westfalen"}, {"name": "Hospital zum Heiligen Geist", "lat": 51.1326455, "lon": 9.2774269, "city": "Fritzlar", "state": "Hessen"}, {"name": "Katholisches Klinikum Koblenz-Montabaur", "lat": 50.431676, "lon": 7.8320138, "city": "Koblenz am Rhein", "state": "Rheinland-Pfalz"}, {"name": "DRK Krankenhaus Alzey", "lat": 49.746157, "lon": 8.1037983, "city": "Alzey", "state": "Rheinland-Pfalz"}, {"name": "LWL-Universit\u00e4tsklinikum Bochum", "lat": 51.4902321, "lon": 7.2295131, "city": "Bochum", "state": "Nordrhein-Westfalen"}, {"name": "Fachklinik f\u00fcr Lungenerkrankungen", "lat": 51.4231779, "lon": 9.4771481, "city": "Immenhausen", "state": "Hessen"}, {"name": "Helios Klinik M\u00fcllheim", "lat": 47.8115859, "lon": 7.6349902, "city": "M\u00fcllheim", "state": "Baden-W\u00fcrttemberg"}, {"name": "Fliedner Krankenhaus Ratingen", "lat": 51.3334884, "lon": 6.8186108, "city": "Ratingen", "state": "Nordrhein-Westfalen"}, {"name": "Helios Klinikum Wuppertal", "lat": 51.5327846, "lon": 11.5415713, "city": "Wuppertal", "state": "Nordrhein-Westfalen"}, {"name": "Klinikum Nordfriesland gGmbH - Klinik Husum und Klinik Nieb\u00fcll", "lat": 54.7931051, "lon": 8.8437762, "city": "Nieb\u00fcll", "state": "Schleswig-Holstein"}, {"name": "St. Elisabeth-Hospitalgesellschaft Niederrhein mbH", "lat": 51.3044348, "lon": 6.6767774, "city": "Meerbusch", "state": "Nordrhein-Westfalen"}, {"name": "Vestische Kinder- und Jugendklinik Datteln", "lat": 51.642802, "lon": 7.3380359, "city": "Datteln", "state": "Nordrhein-Westfalen"}, {"name": "Krankenhaus Wittmund gGmbH", "lat": 53.571777, "lon": 7.7881767, "city": "Wittmund", "state": "Niedersachsen"}, {"name": "Privatklinik Stillachhaus Betriebsgesellschaft mbH", "lat": 47.4070258, "lon": 10.2585415, "city": "Oberstdorf", "state": "Bayern"}, {"name": "Kath. Krankenhaus Hagen gem. GmbH", "lat": 51.358904, "lon": 7.5663104, "city": "Hagen, Westfalen", "state": "Nordrhein-Westfalen"}, {"name": "Katholisches Klinikum Bochum gGmbH", "lat": 51.4827507, "lon": 7.2211891, "city": "Bochum", "state": "Nordrhein-Westfalen"}, {"name": "Paracelsus Klinik am Silbersee", "lat": 50.3971983, "lon": 12.3359648, "city": "Langenhagen", "state": "Niedersachsen"}, {"name": "St. Vinzenz-Krankenhaus Hanau", "lat": 50.1351427, "lon": 8.9122132, "city": "Hanau", "state": "Hessen"}, {"name": "Diabetes-Klinik Bad Mergentheim", "lat": 49.4957103, "lon": 9.7793963, "city": "Bad Mergentheim", "state": "Baden-W\u00fcrttemberg"}, {"name": "Zentrum f\u00fcr Psychiatrie Reichenau", "lat": 47.6945646, "lon": 9.1235823, "city": "Reichenau", "state": "Baden-W\u00fcrttemberg"}, {"name": "AMEOS Klinikum Haldensleben", "lat": 53.5324132, "lon": 8.6047696, "city": "Haldensleben", "state": "Sachsen-Anhalt"}, {"name": "UKM Marienhospital Steinfurt", "lat": 52.1265238, "lon": 7.4004494, "city": "Emsdetten", "state": "Nordrhein-Westfalen"}, {"name": "MEDIAN Klinik NRZ Wiesbaden", "lat": 50.3898208, "lon": 10.5662547, "city": "Wiesbaden", "state": "Hessen"}, {"name": "SALUS gGmbH Fachklinikum Uchtspringe", "lat": 52.1562875, "lon": 11.9927213, "city": "Salzwedel, Hansestadt", "state": "Sachsen-Anhalt"}, {"name": "Elbe Klinikum Stade", "lat": 53.5961616, "lon": 9.442593, "city": "Stade, Niederelbe", "state": "Niedersachsen"}, {"name": "Helios Klinikum Berlin-Buch", "lat": 52.6312045, "lon": 13.508294, "city": "Berlin", "state": "Berlin"}, {"name": "St. Vincentius-Krankenhaus", "lat": 49.3160554, "lon": 8.4213194, "city": "Speyer", "state": "Rheinland-Pfalz"}, {"name": "Friedrich-Husemann-Klinik", "lat": 47.9682399, "lon": 7.9964445, "city": "Buchenbach", "state": "Baden-W\u00fcrttemberg"}, {"name": "Marienstift Arnstadt - Fachklinik f\u00fcr Orthop\u00e4die", "lat": 50.8374888, "lon": 10.9448779, "city": "Arnstadt", "state": "Th\u00fcringen"}, {"name": "Kreisklinik Wolfratshausen gGmbH", "lat": 47.9118247, "lon": 11.4284621, "city": "Wolfratshausen", "state": "Bayern"}, {"name": "Krankenhaus M\u00f6rsenbroich-Rath GmbH", "lat": 51.2668595, "lon": 6.8246961, "city": "D\u00fcsseldorf", "state": "Nordrhein-Westfalen"}, {"name": "MEDIAN Klinik Berus", "lat": 52.65145, "lon": 11.3970212, "city": "\u00dcberherrn-Berus", "state": "Saarland"}, {"name": "ASKLEPIOS Klinik Seligenstadt", "lat": 50.0418547, "lon": 8.9644898, "city": "Seligenstadt", "state": "Hessen"}, {"name": "ASKLEPIOS Klinik Wei\u00dfenfels", "lat": 51.1939594, "lon": 11.9569056, "city": "Wei\u00dfenfels", "state": "Sachsen-Anhalt"}, {"name": "Klinikum Niederlausitz GmbH", "lat": 51.49854, "lon": 13.7891262, "city": "Lauchhammer", "state": "Brandenburg"}, {"name": "Klinikum Freising GmbH", "lat": 48.4049373, "lon": 11.7450317, "city": "Freising", "state": "Bayern"}, {"name": "Diakonie Klinikum Neunkirchen gGmbH Kreuznacher Diakonie", "lat": 49.3409204, "lon": 7.1830697, "city": "Neunkirchen", "state": "Saarland"}, {"name": "Landkreis Mittweida Krankenhaus", "lat": 50.9809987, "lon": 12.9844836, "city": "Mittweida", "state": "Sachsen"}, {"name": "Krankenhaus Ludmillenstift Meppen", "lat": 52.6887266, "lon": 7.2928697, "city": "Meppen", "state": "Niedersachsen"}, {"name": "Klinikum F\u00fcrth", "lat": 49.4845821, "lon": 10.9745616, "city": "F\u00fcrth", "state": "Bayern"}, {"name": "Veramed Klinik am Wendelstein KG", "lat": 47.739184, "lon": 12.0924539, "city": "Brannenburg", "state": "Bayern"}, {"name": "LWL-Klinik Marl-Sinsen Marl", "lat": 51.6912609, "lon": 7.1827946, "city": "Marl, Westfalen", "state": "Nordrhein-Westfalen"}, {"name": "Krankenhaus Barmherzige Br\u00fcder", "lat": 48.1565428, "lon": 11.5094942, "city": "M\u00fcnchen", "state": "Bayern"}, {"name": "Helios Vogtland-Klinikum Plauen GmbH", "lat": 50.4911428, "lon": 12.1541831, "city": "Plauen", "state": "Sachsen"}, {"name": "Zeisigwaldkliniken Bethanien Chemnitz", "lat": 50.8399595, "lon": 12.9625394, "city": "Chemnitz", "state": "Sachsen"}, {"name": "Helios Klinikum Duisburg", "lat": 51.4134628, "lon": 6.7550697, "city": "Duisburg", "state": "Nordrhein-Westfalen"}, {"name": "Klinikum Altenburger Land GmbH", "lat": 50.9723911, "lon": 12.4399276, "city": "Altenburg", "state": "Th\u00fcringen"}, {"name": "Klinikum Hann. M\u00fcnden GmbH", "lat": 51.3981037, "lon": 9.6582753, "city": "Hann. M\u00fcnden", "state": "Niedersachsen"}, {"name": "Ethianum Klinik", "lat": 49.4093178, "lon": 8.6843062, "city": "Heidelberg", "state": "Baden-W\u00fcrttemberg"}, {"name": "St\u00e4dtisches Klinikum Dresden - Standort Friedrichstadt", "lat": 51.0649971, "lon": 13.835851, "city": "Dresden", "state": "Sachsen"}, {"name": "Hochtaunus-Kliniken gGmbH", "lat": 50.1839526, "lon": 8.4622414, "city": "K\u00f6nigstein", "state": "Hessen"}, {"name": "Dietrich-Bonhoeffer-Klinikum", "lat": 53.5455588, "lon": 13.2943189, "city": "Neubrandenburg", "state": "Mecklenburg-Vorpommern"}, {"name": "KMG Klinikum Mitte GmbH", "lat": 51.1621496, "lon": 11.1219341, "city": "Kyritz", "state": "Brandenburg"}, {"name": "GEOMED-KREISKLINIK GmbH", "lat": 49.9006262, "lon": 10.3559732, "city": "Gerolzhofen", "state": "Bayern"}, {"name": "Stiftung Kreuznacher Diakonie Fliedner Krankenhaus", "lat": 49.3481651, "lon": 7.1859385, "city": "Neunkirchen", "state": "Saarland"}, {"name": "Helios Frankenwaldklinik Kronach", "lat": 50.2437656, "lon": 11.3322307, "city": "Kronach", "state": "Bayern"}, {"name": "Dreifaltigkeits-Hospital gGmbH", "lat": 51.6366454, "lon": 8.5098743, "city": "Geseke", "state": "Nordrhein-Westfalen"}, {"name": "Kliniken Am Goldenen Steig", "lat": 48.8053542, "lon": 13.546133, "city": "Freyung", "state": "Bayern"}, {"name": "Alexius/Josef Krankenhaus", "lat": 51.1912809, "lon": 6.7019633, "city": "Neuss", "state": "Nordrhein-Westfalen"}, {"name": "Klinikum Weser-Egge", "lat": 51.7273958, "lon": 9.1807095, "city": "Bad Driburg", "state": "Nordrhein-Westfalen"}, {"name": "AMEOS Klinikum L\u00fcbeck", "lat": 48.2636904, "lon": 13.0140152, "city": "L\u00fcbeck", "state": "Schleswig-Holstein"}, {"name": "Krankenhaus St. Joseph-Stift Dresden", "lat": 51.0474063, "lon": 13.7611938, "city": "Dresden", "state": "Sachsen"}, {"name": "Gemeinschaftskrankenhaus Bonn gGmbH", "lat": 50.7275413, "lon": 7.1027037, "city": "Bonn", "state": "Nordrhein-Westfalen"}, {"name": "Gesundheit Nord gGmbH Klinikverbund Bremen Standort Klinkum Bremen-Ost", "lat": 53.0641569, "lon": 8.9403138, "city": "Bremen", "state": "Bremen"}, {"name": "Hauptstandort Rudolf-Virchow-Klinikum", "lat": 50.8100336, "lon": 12.5519603, "city": "Glauchau", "state": "Sachsen"}, {"name": "ASKLEPIOS Klinik Lich", "lat": 48.8629014, "lon": 13.0674971, "city": "Lich", "state": "Hessen"}, {"name": "Helios Dr. Horst Schmidt Kliniken Wiesbaden", "lat": 50.0651776, "lon": 8.1917428, "city": "Wiesbaden", "state": "Hessen"}, {"name": "St. Theresien-Krankenhaus N\u00fcrnberg Gemeinn\u00fctzige GmbH", "lat": 49.4692931, "lon": 11.11039, "city": "N\u00fcrnberg", "state": "Bayern"}, {"name": "Stenum Fachklinik f\u00fcr Orthop\u00e4die", "lat": 53.0791014, "lon": 8.5549485, "city": "Ganderkesee", "state": "Niedersachsen"}, {"name": "St. Josefs-Hospital Rheingau", "lat": 49.9831747, "lon": 7.9264059, "city": "R\u00fcdesheim", "state": "Hessen"}, {"name": "DIAKO Ev. Diakonie-Krankenhaus gGmbH", "lat": 53.1257006, "lon": 8.7453503, "city": "Bremen", "state": "Bremen"}, {"name": "Rotes-Kreuz-Krankenhaus Bremen gGmbH", "lat": 53.0691185, "lon": 8.8029953, "city": "Bremen", "state": "Bremen"}, {"name": "Delme Klinikum Delmenhorst", "lat": 53.0445524, "lon": 8.594001, "city": "Delmenhorst", "state": "Niedersachsen"}, {"name": "Roland-Klinik gGmbH", "lat": 53.0563459, "lon": 8.8241258, "city": "Bremen", "state": "Bremen"}, {"name": "Havelland Kliniken GmbH", "lat": 52.5997683, "lon": 12.8749259, "city": "Falkensee", "state": "Brandenburg"}, {"name": "AMEOS Klinikum Haldensleben", "lat": 53.0759975, "lon": 8.9425303, "city": "Haldensleben", "state": "Sachsen-Anhalt"}, {"name": "Krankenhaus St. Elisabeth und St. Barbara", "lat": 51.4588251, "lon": 11.9785785, "city": "Halle (Saale)", "state": "Sachsen-Anhalt"}, {"name": "Helios St. Elisabeth Klinik H\u00fcnfeld", "lat": 51.4899264, "lon": 6.7610278, "city": "H\u00fcnfeld", "state": "Hessen"}, {"name": "Paracelsus-Klinik Bremen GmbH", "lat": 53.0795813, "lon": 8.8769959, "city": "Bremen", "state": "Bremen"}, {"name": "St. Elisabeth-Krankenhaus GmbH", "lat": 50.9230859, "lon": 6.8967971, "city": "K\u00f6ln", "state": "Nordrhein-Westfalen"}, {"name": "Standort Marienhospital Kevelaer", "lat": 51.7726173, "lon": 6.1355496, "city": "Kevelaer", "state": "Nordrhein-Westfalen"}, {"name": "ASKLEPIOS Neurologische Klinik Falkenstein", "lat": 50.1912349, "lon": 8.4831095, "city": "K\u00f6nigstein", "state": "Hessen"}, {"name": "Helios B\u00f6rdeklinik GmbH", "lat": 52.0658403, "lon": 11.1905095, "city": "Oschersleben", "state": "Sachsen-Anhalt"}, {"name": "AMEOS Klinikum Haldensleben", "lat": 54.3742228, "lon": 10.9565512, "city": "Haldensleben", "state": "Sachsen-Anhalt"}, {"name": "BDH-Klinik Hessisch Oldendorf", "lat": 52.1739958, "lon": 9.2503124, "city": "Hessisch Oldendorf", "state": "Niedersachsen"}, {"name": "Caritas-Krankenhaus St. Lukas GmbH", "lat": 48.9239399, "lon": 11.8858437, "city": "Kelheim", "state": "Bayern"}, {"name": "Marienhospital Gelsenkirchen GmbH", "lat": 51.4955001, "lon": 7.101255, "city": "Gelsenkirchen", "state": "Nordrhein-Westfalen"}, {"name": "St. Josefskrankenhaus Heidelberg", "lat": 49.4025692, "lon": 8.6891404, "city": "Heidelberg", "state": "Baden-W\u00fcrttemberg"}, {"name": "Cellitinnen-Krankenhaus St. Antonius", "lat": 50.9103481, "lon": 6.9668519, "city": "K\u00f6ln", "state": "Nordrhein-Westfalen"}, {"name": "MEDIAN Klinik Berus", "lat": 52.3251649, "lon": 11.2382678, "city": "\u00dcberherrn-Berus", "state": "Saarland"}, {"name": "Klinikum Weser-Egge", "lat": 51.7419517, "lon": 9.0116909, "city": "Bad Driburg", "state": "Nordrhein-Westfalen"}, {"name": "ASKLEPIOS Klinik Pasewalk", "lat": 53.4894556, "lon": 13.9860745, "city": "Pasewalk", "state": "Mecklenburg-Vorpommern"}, {"name": "Neurologische Klinik Sorpesee GmbH & Co. KG", "lat": 51.3495788, "lon": 7.9505313, "city": "Sundern (Sauerland)", "state": "Nordrhein-Westfalen"}, {"name": "Helios Klinik Leisnig GmbH", "lat": 51.1558361, "lon": 12.9207864, "city": "Leisnig", "state": "Sachsen"}, {"name": "ASKLEPIOS Klinik Altona", "lat": 53.5549447, "lon": 9.9016476, "city": "Hamburg", "state": "Hamburg"}, {"name": "Malteser-Krankenhaus Berlin-Charlottenburg", "lat": 52.5088183, "lon": 13.2518888, "city": "Berlin", "state": "Berlin"}, {"name": "Klinikum Leverkusen", "lat": 51.0315272, "lon": 7.0346073, "city": "Leverkusen", "state": "Nordrhein-Westfalen"}, {"name": "Klinikum Main-Spessart", "lat": 49.9963025, "lon": 9.5715656, "city": "Lohr am Main", "state": "Bayern"}, {"name": "Psychosomatische Klinik GmbH & Co Windach/Ammersee KG", "lat": 48.0726552, "lon": 11.0484962, "city": "M\u00fcnchen", "state": "Bayern"}, {"name": "Main-Kinzig-Kliniken gGmbH", "lat": 50.2066396, "lon": 9.181324, "city": "Gelnhausen", "state": "Hessen"}, {"name": "Elbe-Elster Klinikum GmbH", "lat": 51.6356982, "lon": 13.6981648, "city": "Finsterwalde", "state": "Brandenburg"}, {"name": "AGAPLESION Bethanien Krankenhaus Heidelberg", "lat": 49.3917759, "lon": 8.6910169, "city": "Heidelberg", "state": "Baden-W\u00fcrttemberg"}, {"name": "Westpfalz-Klinikum", "lat": 49.6588375, "lon": 8.0076943, "city": "Kaiserslautern", "state": "Rheinland-Pfalz"}, {"name": "Westpfalz-Klinikum", "lat": 49.6307343, "lon": 7.8144719, "city": "Kaiserslautern", "state": "Rheinland-Pfalz"}, {"name": "Robert-Koch-Krankenhaus Apolda GmbH", "lat": 51.0126815, "lon": 11.5122751, "city": "Apolda", "state": "Th\u00fcringen"}, {"name": "Bezirksklinikum Mainkofen", "lat": 48.8077434, "lon": 12.8974753, "city": "Deggendorf", "state": "Bayern"}, {"name": "RZ Rheumazentrum RLP GmbH", "lat": 49.8403356, "lon": 7.8556199, "city": "Bad Kreuznach", "state": "Rheinland-Pfalz"}, {"name": "MEDIAN Klinik Berus", "lat": 50.1596132, "lon": 6.8441918, "city": "\u00dcberherrn-Berus", "state": "Saarland"}, {"name": "Evangelisches Lukas-Krankenhaus", "lat": 52.2167356, "lon": 7.0299803, "city": "Gronau (Westfalen)", "state": "Nordrhein-Westfalen"}, {"name": "Evangelisches Krankenhaus G\u00f6ttingen-Weende gGmbH", "lat": 51.5545918, "lon": 9.9436862, "city": "G\u00f6ttingen", "state": "Niedersachsen"}, {"name": "Helios Kliniken Mittelweser GmbH Klinik Stolzenau", "lat": 52.5153105, "lon": 9.0686405, "city": "Stolzenau", "state": "Niedersachsen"}, {"name": "St. Josefskrankenhaus Freiburg", "lat": 48.0016989, "lon": 7.8524318, "city": "Freiburg", "state": "Baden-W\u00fcrttemberg"}, {"name": "Eichsfeld Klinikum gGmbH", "lat": 51.3763467, "lon": 10.1411296, "city": "Heilbad Heiligenstadt", "state": "Th\u00fcringen"}, {"name": "AGAPLESION Evangelisches Krankenhaus Holzminden gGmbH", "lat": 51.834158, "lon": 9.4555899, "city": "Holzminden", "state": "Niedersachsen"}, {"name": "Filderklinik", "lat": 48.6473198, "lon": 9.2040008, "city": "Filderstadt", "state": "Baden-W\u00fcrttemberg"}, {"name": "Ha\u00dfberg-Kliniken A\u00f6R des Landkreises Ha\u00dfberge", "lat": 50.0404247, "lon": 10.5146057, "city": "Ha\u00dffurt", "state": "Bayern"}, {"name": "Klinikum Altm\u00fchlfranken Wei\u00dfenburg", "lat": 49.034364, "lon": 10.9852082, "city": "Wei\u00dfenburg i. Bay.", "state": "Bayern"}, {"name": "Krankenhaus St. Elisabeth und St. Barbara", "lat": 51.4775469, "lon": 11.9681942, "city": "Halle (Saale)", "state": "Sachsen-Anhalt"}, {"name": "Th\u00fcringen Kliniken \"Georgius Agricola\" GmbH", "lat": 50.6444594, "lon": 11.3439016, "city": "Saalfeld/Saale", "state": "Th\u00fcringen"}, {"name": "ASKLEPIOS Fachklinikum G\u00f6ttingen", "lat": 51.5239093, "lon": 9.9172202, "city": "G\u00f6ttingen", "state": "Niedersachsen"}, {"name": "Vivantes Komfortklinik GmbH", "lat": 52.4939563, "lon": 13.4085942, "city": "Berlin", "state": "Berlin"}, {"name": "Heiligenfeld Klinik Berlin", "lat": 50.1874907, "lon": 10.0703698, "city": "Berlin", "state": "Berlin"}, {"name": "Thoraxzentrum Bezirk Unterfranken Fachkrankenhaus", "lat": 50.2510645, "lon": 10.1791546, "city": "M\u00fcnnerstadt", "state": "Bayern"}, {"name": "Klinikum Hochsauerland GmbH", "lat": 51.3416742, "lon": 8.2900458, "city": "Meschede", "state": "Nordrhein-Westfalen"}, {"name": "Niels-Stensen-Kliniken St. Vinzenz-Hospital Hasel\u00fcnne", "lat": 52.6709568, "lon": 7.4828725, "city": "Hasel\u00fcnne", "state": "Niedersachsen"}, {"name": "KRH-Klinikum Siloah", "lat": 52.3598758, "lon": 9.7239145, "city": "Hannover", "state": "Niedersachsen"}, {"name": "Klinik am Steigerwald GmbH & Co. KG, Zentrum f\u00fcr chinesische Medizin und biologische Heilverfahren", "lat": 49.889173, "lon": 10.408378, "city": "Gerolzhofen", "state": "Bayern"}, {"name": "DONAUISAR Klinikum Deggendorf-Landau", "lat": 48.66571, "lon": 12.7030103, "city": "Landau", "state": "Bayern"}, {"name": "DONAUISAR Klinikum Dingolfing", "lat": 48.6218205, "lon": 12.4901208, "city": "Dingolfing", "state": "Bayern"}, {"name": "St. Agatha Fachklinik f\u00fcr Seelische Gesundheit", "lat": 50.9873383, "lon": 6.9604557, "city": "K\u00f6ln", "state": "Nordrhein-Westfalen"}, {"name": "Klinikum Vest GmbH", "lat": 51.6620049, "lon": 7.1241505, "city": "Marl, Westfalen", "state": "Nordrhein-Westfalen"}, {"name": "Zentralinstitut f\u00fcr Seelische Gesundheit", "lat": 49.4922133, "lon": 8.4658312, "city": "Mannheim", "state": "Baden-W\u00fcrttemberg"}, {"name": "Helios Klinikum Berlin-Buch", "lat": 51.4431931, "lon": 10.5666409, "city": "Berlin", "state": "Berlin"}, {"name": "Aller-Weser-Klinik Krankenhaus Verden", "lat": 52.9139486, "lon": 9.2322991, "city": "Verden (Aller)", "state": "Niedersachsen"}, {"name": "Klinikum D\u00f6beln, Hauptstandort", "lat": 51.1187787, "lon": 13.1312528, "city": "D\u00f6beln", "state": "Sachsen"}, {"name": "ASKLEPIOS Klinik Birkenwerder", "lat": 52.6919579, "lon": 13.2984671, "city": "Birkenwerder", "state": "Brandenburg"}, {"name": "AWO Fachkrankenhaus Jerichow", "lat": 52.5010924, "lon": 12.0387905, "city": "Jerichow", "state": "Sachsen-Anhalt"}, {"name": "Kreiskrankenhaus Gr\u00fcnstadt", "lat": 49.5637826, "lon": 8.1578416, "city": "Gr\u00fcnstadt", "state": "Rheinland-Pfalz"}, {"name": "Ammerland Klinik GmbH", "lat": 53.2582985, "lon": 7.9181889, "city": "Westerstede", "state": "Niedersachsen"}, {"name": "LUP Klinikum Helene von B\u00fclow gGmbH", "lat": 53.4342501, "lon": 11.1818181, "city": "Hagenow", "state": "Mecklenburg-Vorpommern"}, {"name": "Hufeland Klinikum GmbH", "lat": 51.1052518, "lon": 10.6496021, "city": "Bad Langensalza", "state": "Th\u00fcringen"}, {"name": "Sch\u00f6n Klinik Lorsch", "lat": 48.1040451, "lon": 11.5670694, "city": "Lorsch", "state": "Hessen"}, {"name": "Kliniken der Stadt K\u00f6ln Standort Merheim", "lat": 50.9374513, "lon": 7.0523589, "city": "K\u00f6ln", "state": "Nordrhein-Westfalen"}, {"name": "MEDIAN Klinik St. Georg Bad D\u00fcrrheim", "lat": 52.0963209, "lon": 8.7615904, "city": "Bad D\u00fcrrheim", "state": "Baden-W\u00fcrttemberg"}, {"name": "St\u00e4dtische Klinikum Karlsruhe", "lat": 49.0120252, "lon": 8.3800276, "city": "Karlsruhe", "state": "Baden-W\u00fcrttemberg"}, {"name": "LWL-Universit\u00e4tsklinikum Bochum", "lat": 51.4908948, "lon": 7.2284387, "city": "Bochum", "state": "Nordrhein-Westfalen"}, {"name": "Pfalzklinikum f\u00fcr Psychiatrie", "lat": 49.1502328, "lon": 8.0143616, "city": "Kaiserslautern", "state": "Rheinland-Pfalz"}, {"name": "Elisabeth Klinikum Schmalkalden GmbH", "lat": 50.7219866, "lon": 10.4405294, "city": "Schmalkalden", "state": "Th\u00fcringen"}, {"name": "Klinik Sankt Elisabeth", "lat": 49.421185, "lon": 8.6816458, "city": "Heidelberg", "state": "Baden-W\u00fcrttemberg"}, {"name": "Havelland Kliniken GmbH", "lat": 52.6074062, "lon": 12.3485322, "city": "Rathenow", "state": "Brandenburg"}, {"name": "Helios Mariahilf Klinik Hamburg GmbH", "lat": 53.4698643, "lon": 9.9377592, "city": "Hamburg", "state": "Hamburg"}, {"name": "Universit\u00e4tsklinikum Ulm", "lat": 48.410534, "lon": 10.0009947, "city": "Ulm", "state": "Baden-W\u00fcrttemberg"}, {"name": "Klinikum Oldenburg gGmbH", "lat": 53.1117025, "lon": 8.2171163, "city": "Oldenburg (Oldb.)", "state": "Niedersachsen"}, {"name": "August-Bier-Klinik", "lat": 54.1643909, "lon": 10.5477266, "city": "Bad Malente-Gremsm\u00fchlen", "state": "Schleswig-Holstein"}, {"name": "Curtius Klinik GmbH & Co. KG Fachklinik f\u00fcr Psychosomatik und Psychotherapeutische Medizin", "lat": 54.1717903, "lon": 10.5661284, "city": "Bad Malente-Gremsm\u00fchlen", "state": "Schleswig-Holstein"}, {"name": "Helios Frankenwaldklinik Kronach", "lat": 51.7294572, "lon": 9.9792081, "city": "Kronach", "state": "Bayern"}, {"name": "Fliedner Krankenhaus Ratingen", "lat": 51.3362354, "lon": 6.8157406, "city": "Ratingen", "state": "Nordrhein-Westfalen"}, {"name": "Erzgebirgsklinikum gGmbH - Haus Stollberg", "lat": 50.7177804, "lon": 12.7881008, "city": "Stollberg", "state": "Sachsen"}, {"name": "AGAPLESION Krankenhaus Neu-Bethlehem gGmbH", "lat": 51.5407387, "lon": 9.9430858, "city": "G\u00f6ttingen", "state": "Niedersachsen"}, {"name": "AMEOS Klinikum L\u00fcbeck", "lat": 54.2900614, "lon": 10.8801334, "city": "L\u00fcbeck", "state": "Schleswig-Holstein"}, {"name": "Universit\u00e4tsklinikum Aachen A\u00f6R", "lat": 50.7654183, "lon": 6.0693066, "city": "Aachen", "state": "Nordrhein-Westfalen"}, {"name": "MEDIAN Klinik Berus", "lat": 52.5048172, "lon": 13.6605698, "city": "\u00dcberherrn-Berus", "state": "Saarland"}, {"name": "Burghof-Klinik GmbH", "lat": 52.1842784, "lon": 9.0815691, "city": "Rinteln", "state": "Niedersachsen"}, {"name": "St. Marien-Hospital M\u00fclheim an der Ruhr GmbH", "lat": 51.4260383, "lon": 6.8867307, "city": "M\u00fclheim an der Ruhr", "state": "Nordrhein-Westfalen"}, {"name": "Klinikum Kulmbach mit Au\u00dfenstelle Stadtsteinach", "lat": 50.1177637, "lon": 11.4663904, "city": "Kulmbach", "state": "Bayern"}, {"name": "ASKLEPIOS Klinikum Harburg", "lat": 51.7890648, "lon": 9.3762815, "city": "Hamburg", "state": "Hamburg"}, {"name": "Klinikum Stuttgart", "lat": 48.784267, "lon": 9.1722948, "city": "Stuttgart", "state": "Baden-W\u00fcrttemberg"}, {"name": "Helios Klinik Kiel", "lat": 54.3045621, "lon": 10.1168621, "city": "Kiel", "state": "Schleswig-Holstein"}, {"name": "Universit\u00e4tsklinikum Schleswig-Holstein", "lat": 53.8364382, "lon": 10.7070617, "city": "Kiel", "state": "Schleswig-Holstein"}, {"name": "Kreiskrankenhaus Prignitz gGmbH", "lat": 53.0734805, "lon": 11.8737822, "city": "Perleberg", "state": "Brandenburg"}, {"name": "LVR-Klinik f\u00fcr Orthop\u00e4die Viersen", "lat": 51.2911213, "lon": 6.3498661, "city": "Viersen", "state": "Nordrhein-Westfalen"}, {"name": "Sankt Josef-Hospital GmbH", "lat": 51.6431235, "lon": 6.4520034, "city": "Xanten", "state": "Nordrhein-Westfalen"}, {"name": "Sch\u00f6n Klinik Neustadt", "lat": 48.1717085, "lon": 11.5849581, "city": "Neustadt in Holstein", "state": "Schleswig-Holstein"}, {"name": "KKRN Katholisches Klinikum Ruhrgebiet Nord GmbH", "lat": 51.7454709, "lon": 7.1941866, "city": "Haltern am See", "state": "Nordrhein-Westfalen"}, {"name": "Krankenhaus Buchholz und Winsen gGmbH Krankenhaus Buchholz", "lat": 53.3332666, "lon": 9.8718156, "city": "Buchholz in der Nordheide", "state": "Niedersachsen"}, {"name": "VAMED Klinik Hohenst\u00fccken KH", "lat": 52.4334942, "lon": 12.5127175, "city": "Brandenburg an der Havel", "state": "Brandenburg"}, {"name": "Schwarzwald-Baar Klinikum", "lat": 47.9555596, "lon": 8.4801206, "city": "Donaueschingen", "state": "Baden-W\u00fcrttemberg"}, {"name": "Vivantes Komfortklinik GmbH", "lat": 52.5496172, "lon": 13.2069596, "city": "Berlin", "state": "Berlin"}, {"name": "Ev. Krankenhaus D\u00fcsseldorf", "lat": 51.2131737, "lon": 6.7730583, "city": "D\u00fcsseldorf", "state": "Nordrhein-Westfalen"}, {"name": "Johanniter - Klinik f\u00fcr Geriatrie Geesthacht", "lat": 52.0820098, "lon": 9.7668802, "city": "Geesthacht", "state": "Schleswig-Holstein"}, {"name": "AGAPLESION Bethesda Krankenhaus Wuppertal", "lat": 51.2677048, "lon": 7.1301853, "city": "Wuppertal", "state": "Nordrhein-Westfalen"}, {"name": "Klinikum L\u00fcdenscheid", "lat": 51.2076814, "lon": 7.6623278, "city": "L\u00fcdenscheid", "state": "Nordrhein-Westfalen"}, {"name": "Klinik Lilienthal", "lat": 53.1494055, "lon": 8.9063868, "city": "Lilienthal bei Bremen", "state": "Niedersachsen"}, {"name": "Ev. Diakonissenkrankenhaus, Hauptstandort", "lat": 51.342499, "lon": 12.3197657, "city": "Leipzig", "state": "Sachsen"}, {"name": "Klinikum Oberg\u00f6ltzsch Rodewisch", "lat": 50.5231127, "lon": 12.4108387, "city": "Rodewisch", "state": "Sachsen"}, {"name": "Saarland-Heilst\u00e4tten Gmbh SHG-Kliniken Sonnenberg", "lat": 49.2010196, "lon": 7.0110284, "city": "Saarbr\u00fccken", "state": "Saarland"}, {"name": "Sana Krankenhaus Bad Doberan GmbH", "lat": 52.4476303, "lon": 13.7622057, "city": "Hohenfelde", "state": "Mecklenburg-Vorpommern"}, {"name": "Josephs-Hospital Warendorf", "lat": 51.9607739, "lon": 8.0023675, "city": "Warendorf", "state": "Nordrhein-Westfalen"}, {"name": "Niels-Stensen-Kliniken St. Vinzenz-Hospital Hasel\u00fcnne", "lat": 52.2377281, "lon": 8.0721747, "city": "Hasel\u00fcnne", "state": "Niedersachsen"}, {"name": "Medical Team Clinic GmbH", "lat": 48.1087824, "lon": 11.4152009, "city": "Planegg", "state": "Bayern"}, {"name": "Heiligenfeld Klinik Uffenheim", "lat": 49.5421387, "lon": 10.2353859, "city": "Uffenheim", "state": "Bayern"}, {"name": "Epilepsiezentrum Kork", "lat": 48.5667293, "lon": 7.8657791, "city": "Kehl", "state": "Baden-W\u00fcrttemberg"}, {"name": "Gemeinschaftsklinikum Mittelrhein gGmbH", "lat": 50.232458, "lon": 7.5874522, "city": "Koblenz", "state": "Rheinland-Pfalz"}, {"name": "Kreisklinik Gro\u00df-Gerau", "lat": 49.9130732, "lon": 8.4750413, "city": "Gro\u00df-Gerau", "state": "Hessen"}, {"name": "St\u00e4dtisches Klinikum Wolfenb\u00fcttel gGmbH", "lat": 52.1798402, "lon": 10.5340282, "city": "Wolfenb\u00fcttel", "state": "Niedersachsen"}, {"name": "Klinikum Osnabr\u00fcck", "lat": 52.2781976, "lon": 8.0025079, "city": "Osnabr\u00fcck", "state": "Niedersachsen"}, {"name": "Evangelische Klinikum Niederrhein gGmbH", "lat": 51.515344, "lon": 6.7657358, "city": "Duisburg", "state": "Nordrhein-Westfalen"}, {"name": "Orthop\u00e4dische Klinik Markgr\u00f6ningen", "lat": 48.9084835, "lon": 9.1073604, "city": "Markgr\u00f6ningen", "state": "Baden-W\u00fcrttemberg"}, {"name": "Johanniter - Klinik f\u00fcr Geriatrie Geesthacht", "lat": 50.7125609, "lon": 7.1324916, "city": "Geesthacht", "state": "Schleswig-Holstein"}, {"name": "COLLM KLINIK OSCHATZ gmbH", "lat": 51.2921246, "lon": 13.1143525, "city": "Oschatz", "state": "Sachsen"}, {"name": "Evangelisches Krankenhaus Bethanien gGmbH", "lat": 54.0781465, "lon": 13.3834484, "city": "Greifswald", "state": "Mecklenburg-Vorpommern"}, {"name": "Medical Park Chiemseeblick GmbH & Co.KG", "lat": 47.8335779, "lon": 12.3917098, "city": "Bernau am Chiemsee", "state": "Bayern"}, {"name": "Medical Park Chiemseeblick GmbH & Co.KG", "lat": 47.8303678, "lon": 12.3803694, "city": "Bernau am Chiemsee", "state": "Bayern"}, {"name": "Heilig-Geist-Hospital", "lat": 49.9684253, "lon": 7.8967741, "city": "Bingen am Rhein", "state": "Rheinland-Pfalz"}, {"name": "Karl-Hansen-Klinik GmbH", "lat": 51.7872763, "lon": 8.7996146, "city": "Bad Lippspringe", "state": "Nordrhein-Westfalen"}, {"name": "Karl-Hansen-Klinik GmbH", "lat": 51.7875157, "lon": 8.8176662, "city": "Bad Lippspringe", "state": "Nordrhein-Westfalen"}, {"name": "Karl-Hansen-Klinik GmbH", "lat": 51.7822674, "lon": 8.8263057, "city": "Bad Lippspringe", "state": "Nordrhein-Westfalen"}, {"name": "Helios St. Elisabeth Klinik H\u00fcnfeld", "lat": 48.9518361, "lon": 11.3949358, "city": "H\u00fcnfeld", "state": "Hessen"}, {"name": "Kreiskrankenhaus Greiz-Ronneburg GmbH Fachklinik f\u00fcr Geriatrie", "lat": 50.8670634, "lon": 12.1882684, "city": "Ronneburg", "state": "Th\u00fcringen"}, {"name": "Zentralinstitut f\u00fcr Seelische Gesundheit", "lat": 49.4928932, "lon": 8.4680637, "city": "Mannheim", "state": "Baden-W\u00fcrttemberg"}, {"name": "Oberhavel Kliniken GmbH Krankenhaus", "lat": 52.6557709, "lon": 13.1909249, "city": "Hennigsdorf", "state": "Brandenburg"}, {"name": "AMEOS Klinikum L\u00fcbeck", "lat": 54.2386983, "lon": 10.2765019, "city": "L\u00fcbeck", "state": "Schleswig-Holstein"}, {"name": "Rems-Murr-Klinikum Winnenden", "lat": 48.7974547, "lon": 9.5293051, "city": "Winnenden", "state": "Baden-W\u00fcrttemberg"}, {"name": "Immanuel-Krankenhaus Berlin", "lat": 52.4194854, "lon": 13.1640021, "city": "Berlin", "state": "Berlin"}, {"name": "Krankenhaus L\u00fcbbecke-Rahden", "lat": 52.2957885, "lon": 8.6038136, "city": "L\u00fcbbecke, Westfalen", "state": "Nordrhein-Westfalen"}, {"name": "Diakonissenkrankenhaus Dresden", "lat": 51.2944515, "lon": 14.8168599, "city": "Niesky", "state": "Sachsen"}, {"name": "Schelztor-Klinik", "lat": 48.7415721, "lon": 9.300691, "city": "Esslingen", "state": "Baden-W\u00fcrttemberg"}, {"name": "St\u00e4dtisches Krankenhaus Nettetal GmbH", "lat": 51.3089948, "lon": 6.2708798, "city": "Nettetal", "state": "Nordrhein-Westfalen"}, {"name": "ASKLEPIOS Westklinikum GmbH", "lat": 53.5823312, "lon": 9.7777313, "city": "Hamburg", "state": "Hamburg"}, {"name": "Klinikum Heidenheim", "lat": 48.6723838, "lon": 10.1410911, "city": "Heidenheim an der Brenz", "state": "Baden-W\u00fcrttemberg"}, {"name": "Universit\u00e4tsklinikum Erlangen", "lat": 49.5961147, "lon": 11.012726, "city": "Erlangen", "state": "Bayern"}, {"name": "Heiligenfeld Klinik Berlin", "lat": 52.51781, "lon": 13.5694649, "city": "Berlin", "state": "Berlin"}, {"name": "ASKLEPIOS S\u00fcdpfalzkliniken GmbH", "lat": 49.2200087, "lon": 8.365767, "city": "Burglengenfeld", "state": "Bayern"}, {"name": "Klinikum Christophsbad", "lat": 48.7005764, "lon": 9.6441051, "city": "G\u00f6ppingen", "state": "Baden-W\u00fcrttemberg"}, {"name": "Johanniter - Klinik f\u00fcr Geriatrie Geesthacht", "lat": 53.4316441, "lon": 10.3853014, "city": "Geesthacht", "state": "Schleswig-Holstein"}, {"name": "Katholisches Klinikum Mainz", "lat": 49.9892976, "lon": 8.2707191, "city": "Mainz am Rhein", "state": "Rheinland-Pfalz"}, {"name": "KMG Klinikum Thueringen Brandenburg GmbH", "lat": 51.3736886, "lon": 10.8786114, "city": "Sondershausen", "state": "Th\u00fcringen"}, {"name": "Kreiskrankenhaus Rotenburg a. d. Fulda", "lat": 50.9957352, "lon": 9.7207254, "city": "Rotenburg", "state": "Hessen"}, {"name": "Helios Klinik Schkeuditz", "lat": 51.3944728, "lon": 12.2312474, "city": "Schkeuditz", "state": "Sachsen"}, {"name": "Sana Klinikum Hof GmbH", "lat": 50.3025406, "lon": 11.914768, "city": "Hof", "state": "Bayern"}, {"name": "Klinikum Dahme-Spreewald GmbH", "lat": 52.3034698, "lon": 13.6278035, "city": "K\u00f6nigs Wusterhausen", "state": "Brandenburg"}, {"name": "Kreiskrankenhaus Schrobenhausen GmbH", "lat": 48.5725195, "lon": 11.2636582, "city": "Schrobenhausen", "state": "Bayern"}, {"name": "Helios Klinik Bleicherode", "lat": 49.8109545, "lon": 9.1666382, "city": "Bleicherode", "state": "Th\u00fcringen"}, {"name": "Charit\u00e9 Universit\u00e4tsmedizin Berlin", "lat": 52.5257591, "lon": 13.3778873, "city": "Berlin", "state": "Berlin"}, {"name": "Ha\u00dfberg-Kliniken A\u00f6R des Landkreises Ha\u00dfberge", "lat": 50.0972332, "lon": 10.7982507, "city": "Ebern", "state": "Bayern"}, {"name": "Sozialstiftung Bamberg", "lat": 49.8931298, "lon": 10.871427, "city": "Bamberg", "state": "Bayern"}, {"name": "Westpfalz-Klinikum", "lat": 49.5466167, "lon": 7.3773385, "city": "Kusel", "state": "Rheinland-Pfalz"}, {"name": "Marienhaus Klinikum Bendorf - Neuwied - Waldbreitbach", "lat": 50.4275674, "lon": 7.471172, "city": "Neuwied", "state": "Rheinland-Pfalz"}, {"name": "Klinikum Bielefeld gGmbH", "lat": 51.9823661, "lon": 8.5323312, "city": "Bielefeld", "state": "Nordrhein-Westfalen"}, {"name": "Sch\u00f6n Klinik Bad Bramstedt", "lat": 53.9044557, "lon": 9.888273, "city": "Bad Bramstedt", "state": "Schleswig-Holstein"}, {"name": "MEDIAN Klinik NRZ Wiesbaden", "lat": 52.0971412, "lon": 8.7502872, "city": "Wiesbaden", "state": "Hessen"}, {"name": "RKU - Universit\u00e4ts- und Rehabilitationskliniken  Ulm", "lat": 48.4244038, "lon": 9.9444536, "city": "Ulm", "state": "Baden-W\u00fcrttemberg"}, {"name": "Herz- und Gef\u00e4\u00dfzentrum Bad Bevensen", "lat": 53.0851112, "lon": 10.6039988, "city": "Bad Bevensen", "state": "Niedersachsen"}, {"name": "Marien-Hospital Erftstadt-Frauenthal", "lat": 50.8072976, "lon": 6.80865, "city": "Erftstadt", "state": "Nordrhein-Westfalen"}, {"name": "Hessenklinik Stadtkrankenhaus Korbach gGmbH", "lat": 51.2673746, "lon": 8.8710087, "city": "Korbach", "state": "Hessen"}, {"name": "Dietrich-Bonhoeffer-Klinikum", "lat": 53.6965734, "lon": 13.2523635, "city": "Altentreptow", "state": "Mecklenburg-Vorpommern"}, {"name": "Segeberger Kliniken GmbH", "lat": 53.9411649, "lon": 10.3091228, "city": "Bad Segeberg", "state": "Schleswig-Holstein"}, {"name": "Segeberger Kliniken GmbH", "lat": 53.9420171, "lon": 10.3101642, "city": "Bad Segeberg", "state": "Schleswig-Holstein"}, {"name": "Segeberger Kliniken GmbH", "lat": 53.9435213, "lon": 10.3081553, "city": "Bad Segeberg", "state": "Schleswig-Holstein"}, {"name": "Segeberger Kliniken GmbH", "lat": 53.9518802, "lon": 10.2950947, "city": "Bad Segeberg", "state": "Schleswig-Holstein"}, {"name": "Helios Klinik Zerbst/Anhalt GmbH", "lat": 51.960414, "lon": 12.0945424, "city": "Zerbst", "state": "Sachsen-Anhalt"}, {"name": "Kliniken des Landkreises Neustadt a. d. Aisch-Bad Windsheim", "lat": 49.5820339, "lon": 10.6229515, "city": "Neustadt a. d. Aisch", "state": "Bayern"}, {"name": "Heidekreis Klinikum GmbH Krankenhaus Walsrode", "lat": 52.8591794, "lon": 9.5868433, "city": "Walsrode", "state": "Niedersachsen"}, {"name": "Heidekreis Klinikum GmbH Krankenhaus Soltau", "lat": 52.9893051, "lon": 9.8557584, "city": "Soltau", "state": "Niedersachsen"}, {"name": "Diakoniewerk M\u00fcnchen-Maxvorstadt", "lat": 48.1513508, "lon": 11.569379, "city": "M\u00fcnchen", "state": "Bayern"}, {"name": "S\u00e4chsisches Krankenhaus Rodewisch", "lat": 50.4933097, "lon": 12.1002174, "city": "Plauen", "state": "Sachsen"}, {"name": "Helios Klinikum Hildesheim GmbH", "lat": 52.151027, "lon": 9.9766477, "city": "Hildesheim", "state": "Niedersachsen"}, {"name": "St. Marien-Krankenhaus Berlin", "lat": 52.4243752, "lon": 13.3491945, "city": "Berlin", "state": "Berlin"}, {"name": "Klinik Kitzinger Land", "lat": 49.7436917, "lon": 10.1392093, "city": "Kitzingen", "state": "Bayern"}, {"name": "AMEOS Krankenhausgesellschaft Oberhausen mbH", "lat": 51.476878, "lon": 6.8628217, "city": "Oberhausen, Rheinland", "state": "Nordrhein-Westfalen"}, {"name": "Diakonissen-Stiftungs-Krankenhaus Speyer", "lat": 49.4665575, "lon": 8.1791839, "city": "Speyer", "state": "Rheinland-Pfalz"}, {"name": "m&i-Fachklinik Enzensberg", "lat": 47.6143706, "lon": 10.6887028, "city": "F\u00fcssen", "state": "Bayern"}, {"name": "Arona Klinik f\u00fcr Altersmedizin", "lat": 52.5155394, "lon": 13.5640162, "city": "Berlin", "state": "Berlin"}, {"name": "Privatklinik Bad Gleisweiler", "lat": 49.242326, "lon": 8.0602199, "city": "Gleisweiler", "state": "Rheinland-Pfalz"}, {"name": "Ortenau Klinikum Achern", "lat": 48.6253504, "lon": 8.0659637, "city": "Achern", "state": "Baden-W\u00fcrttemberg"}, {"name": "Krankenhaus Jerusalem Hamburg", "lat": 53.5695968, "lon": 9.9674591, "city": "Hamburg", "state": "Hamburg"}, {"name": "medius KLINIK OSTFILDERN-RUIT", "lat": 48.7412976, "lon": 9.2549865, "city": "Ostfildern", "state": "Baden-W\u00fcrttemberg"}, {"name": "Krankenhaus Maria Hilf GmbH", "lat": 51.4417984, "lon": 8.355693, "city": "Warstein", "state": "Nordrhein-Westfalen"}, {"name": "Klinikum Bielefeld gGmbH", "lat": 52.0144103, "lon": 8.5445336, "city": "Bielefeld", "state": "Nordrhein-Westfalen"}, {"name": "Evangelisches Klinikum Bethel gGmbH", "lat": 52.0134833, "lon": 8.5255207, "city": "Bielefeld", "state": "Nordrhein-Westfalen"}, {"name": "Knappschaftsklinikum Saar GmbH Klinik P\u00fcttlingen", "lat": 49.2770024, "lon": 6.8679765, "city": "P\u00fcttlingen", "state": "Saarland"}, {"name": "Sana Klinik Pegnitz GmbH", "lat": 49.7573292, "lon": 11.5275792, "city": "Pegnitz", "state": "Bayern"}, {"name": "Krankenhaus St. Josef", "lat": 50.0436861, "lon": 10.2252873, "city": "Schweinfurt", "state": "Bayern"}, {"name": "Psychosomatische Klinik", "lat": 50.3502853, "lon": 10.3057638, "city": "Bad Neustadt a. d. Saale", "state": "Bayern"}, {"name": "Kreisklinik Roth", "lat": 49.235548, "lon": 11.0726644, "city": "Roth", "state": "Bayern"}, {"name": "Klinikum Altm\u00fchlfranken Gunzenhausen", "lat": 49.1080549, "lon": 10.773979, "city": "Gunzenhausen", "state": "Bayern"}, {"name": "Vivantes Netzwerk f\u00fcr Gesundheit GmbH", "lat": 52.5255323, "lon": 13.4394766, "city": "Berlin", "state": "Berlin"}, {"name": "Tropenklinik Paul-Lechler-Krankenhaus", "lat": 48.5311791, "lon": 9.0606698, "city": "T\u00fcbingen", "state": "Baden-W\u00fcrttemberg"}, {"name": "LVR-Klinik Bonn", "lat": 50.7522838, "lon": 7.0434075, "city": "Bonn", "state": "Nordrhein-Westfalen"}, {"name": "Inselkrankenhaus Borkum gGmbH", "lat": 53.585277, "lon": 6.670918, "city": "Borkum", "state": "Niedersachsen"}, {"name": "Evangelisches Klinikum Bethel gGmbH", "lat": 52.0119323, "lon": 8.5300139, "city": "Bielefeld", "state": "Nordrhein-Westfalen"}, {"name": "LVR-Klinik D\u00fcren", "lat": 50.8218698, "lon": 6.4802244, "city": "D\u00fcren, Rheinland", "state": "Nordrhein-Westfalen"}, {"name": "LUP-Klinikum am Crivitzer See gGmbH", "lat": 53.5754281, "lon": 11.6481221, "city": "Crivitz", "state": "Mecklenburg-Vorpommern"}, {"name": "Caritas-Krankenhaus Lebach", "lat": 49.4190942, "lon": 6.8896698, "city": "Lebach", "state": "Saarland"}, {"name": "Klinikum Merzig gGmbH", "lat": 49.4570001, "lon": 6.6332478, "city": "Merzig", "state": "Saarland"}, {"name": "Oberberg Fachklinik Rhein-Jura", "lat": 47.5751938, "lon": 9.8586626, "city": "Bad S\u00e4ckingen", "state": "Baden-W\u00fcrttemberg"}, {"name": "Krankenh\u00e4user des Landkreises Amberg-Sulzbach", "lat": 49.5046591, "lon": 11.7289823, "city": "Sulzbach-Rosenberg", "state": "Bayern"}, {"name": "Klinikum Vest GmbH", "lat": 51.6199652, "lon": 7.1759926, "city": "Recklinghausen, Westfalen", "state": "Nordrhein-Westfalen"}, {"name": "KKRN Katholisches Klinikum Ruhrgebiet Nord GmbH", "lat": 51.6524123, "lon": 7.0840208, "city": "Marl, Westfalen", "state": "Nordrhein-Westfalen"}, {"name": "Evangelisches Krankenhaus Castrop-Rauxel", "lat": 51.5673349, "lon": 7.3199585, "city": "Castrop-Rauxel", "state": "Nordrhein-Westfalen"}, {"name": "St.-Laurentius-Stift", "lat": 51.6208689, "lon": 7.3873629, "city": "Waltrop", "state": "Nordrhein-Westfalen"}, {"name": "Sch\u00f6n Klinik Bad Bramstedt", "lat": 47.856961, "lon": 12.0296484, "city": "Bad Bramstedt", "state": "Schleswig-Holstein"}, {"name": "ELBLANDKLINIKUM Mei\u00dfen", "lat": 51.1733157, "lon": 13.5063986, "city": "Mei\u00dfen", "state": "Sachsen"}, {"name": "Muldentalkliniken, Standort Wurzen", "lat": 51.2374959, "lon": 12.718689, "city": "Grimma", "state": "Sachsen"}, {"name": "Sana-Krankenhaus H\u00fcrth GmbH", "lat": 51.3970798, "lon": 6.7008209, "city": "H\u00fcrth, Rheinland", "state": "Nordrhein-Westfalen"}, {"name": "Schussental-Klinik (Akutklinik)", "lat": 47.9533587, "lon": 9.6346461, "city": "Aulendorf", "state": "Baden-W\u00fcrttemberg"}, {"name": "SRH Kliniken Landkreis Sigmaringen", "lat": 48.0964273, "lon": 9.2256124, "city": "Sigmaringen", "state": "Baden-W\u00fcrttemberg"}, {"name": "Sch\u00f6n Klinik Bad Bramstedt", "lat": 47.6022882, "lon": 12.9794508, "city": "Bad Bramstedt", "state": "Schleswig-Holstein"}, {"name": "Sch\u00f6n Klinik Lorsch", "lat": 47.8595217, "lon": 12.3625328, "city": "Lorsch", "state": "Hessen"}, {"name": "Sch\u00f6n Klinik Bad Bramstedt", "lat": 51.3799023, "lon": 9.0274855, "city": "Bad Bramstedt", "state": "Schleswig-Holstein"}, {"name": "Sch\u00f6n Klinik Lorsch", "lat": 50.1110989, "lon": 10.992458, "city": "Lorsch", "state": "Hessen"}, {"name": "Sch\u00f6n Klinik D\u00fcsseldorf SE & Co. KG", "lat": 51.2313187, "lon": 6.7272689, "city": "D\u00fcsseldorf", "state": "Nordrhein-Westfalen"}, {"name": "Sch\u00f6n Klinik Lorsch", "lat": 49.6522034, "lon": 8.5627027, "city": "Lorsch", "state": "Hessen"}, {"name": "Klinik Dr. Denzel", "lat": 49.1355335, "lon": 9.2316069, "city": "Heilbronn", "state": "Baden-W\u00fcrttemberg"}, {"name": "Krankenhaus Buchen", "lat": 49.524074, "lon": 9.308452, "city": "Buchen", "state": "Baden-W\u00fcrttemberg"}, {"name": "Helios Spital \u00dcberlingen", "lat": 47.7747866, "lon": 9.1506508, "city": "\u00dcberlingen", "state": "Baden-W\u00fcrttemberg"}, {"name": "Kreiskrankenhaus Mechernich GmbH", "lat": 50.592562, "lon": 6.6511944, "city": "Mechernich", "state": "Nordrhein-Westfalen"}, {"name": "Klinikum Idar-Oberstein", "lat": 49.7164349, "lon": 7.3213609, "city": "Idar-Oberstein", "state": "Rheinland-Pfalz"}, {"name": "Universit\u00e4tsklinikum Erlangen", "lat": 49.6000839, "lon": 11.008556, "city": "Erlangen", "state": "Bayern"}, {"name": "GFO Kliniken Bonn", "lat": 50.6476461, "lon": 7.2259944, "city": "Bonn", "state": "Nordrhein-Westfalen"}, {"name": "GFO Kliniken Bonn", "lat": 50.7360583, "lon": 7.1186239, "city": "Bonn", "state": "Nordrhein-Westfalen"}, {"name": "Helios Klinikum Siegburg", "lat": 50.7992103, "lon": 7.2062373, "city": "Siegburg", "state": "Nordrhein-Westfalen"}, {"name": "Hermann-Josef-Krankenhaus, Erkelenz", "lat": 51.074548, "lon": 6.3126399, "city": "Erkelenz", "state": "Nordrhein-Westfalen"}, {"name": "Paracelsus-Nordseeklinik Helgoland", "lat": 54.1786841, "lon": 7.886524, "city": "Helgoland", "state": "Schleswig-Holstein"}, {"name": "Klinikum Itzehoe", "lat": 53.9417275, "lon": 9.5037461, "city": "Itzehoe", "state": "Schleswig-Holstein"}, {"name": "St. Antonius-Hospital Gronau", "lat": 52.2082895, "lon": 7.0208279, "city": "Gronau (Westfalen)", "state": "Nordrhein-Westfalen"}, {"name": "Helios Klinik Lengerich", "lat": 52.1987656, "lon": 7.8434526, "city": "Lengerich, Westfalen", "state": "Nordrhein-Westfalen"}, {"name": "Klinikum Bielefeld gGmbH", "lat": 52.0545192, "lon": 8.3548009, "city": "Bielefeld", "state": "Nordrhein-Westfalen"}, {"name": "Klinikum Weser-Egge", "lat": 51.7854303, "lon": 9.3654636, "city": "Bad Driburg", "state": "Nordrhein-Westfalen"}, {"name": "Klinikum Nordfriesland gGmbH - Inselklinik F\u00f6hr-Amrum", "lat": 54.6852962, "lon": 8.5642826, "city": "Wyk auf F\u00f6hr", "state": "Schleswig-Holstein"}, {"name": "AMEOS Klinikum Hameln", "lat": 54.4414643, "lon": 11.1758027, "city": "Hameln", "state": "Niedersachsen"}, {"name": "Schmerzklinik Kiel GmbH & Co. KG", "lat": 54.3288825, "lon": 10.183787, "city": "Kiel", "state": "Schleswig-Holstein"}, {"name": "Krankenhaus Landshut-Achdorf", "lat": 48.5233197, "lon": 12.1499832, "city": "Landshut", "state": "Bayern"}, {"name": "St. Barbara-Klinik Hamm GmbH", "lat": 51.7082938, "lon": 7.841015, "city": "Hamm, Westfalen", "state": "Nordrhein-Westfalen"}, {"name": "Klinikum Wetzlar-Braunfels", "lat": 50.5386896, "lon": 8.5304337, "city": "Wetzlar", "state": "Hessen"}, {"name": "Oberhavel Klinik Gransee GmbH", "lat": 52.9989511, "lon": 13.1442171, "city": "Gransee", "state": "Brandenburg"}, {"name": "Universit\u00e4tsklinikum Heidelberg", "lat": 49.4155818, "lon": 8.6651569, "city": "Heidelberg", "state": "Baden-W\u00fcrttemberg"}, {"name": "Krankenh\u00e4user des Landkreises Amberg-Sulzbach", "lat": 49.6984229, "lon": 11.6193094, "city": "Auerbach", "state": "Bayern"}, {"name": "Elbe Klinikum Buxtehude", "lat": 53.4619083, "lon": 9.6760222, "city": "Buxtehude", "state": "Niedersachsen"}, {"name": "Dreifaltigkeits-Krankenhaus Wesseling", "lat": 50.8217851, "lon": 6.9853126, "city": "Wesseling, Rheinland", "state": "Nordrhein-Westfalen"}, {"name": "Klinik Manhagen", "lat": 53.6630679, "lon": 10.2574499, "city": "Gro\u00dfhansdorf", "state": "Schleswig-Holstein"}, {"name": "Klinikum Landshut gemeinn\u00fctzige GmbH", "lat": 48.5376718, "lon": 12.1375837, "city": "Landshut", "state": "Bayern"}, {"name": "Krankenhaus Eichhof", "lat": 50.6296369, "lon": 9.3903261, "city": "Lauterbach", "state": "Hessen"}, {"name": "Evangelisches Klinikum K\u00f6ln Weyertal", "lat": 50.9276265, "lon": 6.9255891, "city": "K\u00f6ln", "state": "Nordrhein-Westfalen"}, {"name": "Rottal-Inn Kliniken Kommunalunternehmen", "lat": 48.4130091, "lon": 12.7599515, "city": "Eggenfelden", "state": "Bayern"}, {"name": "Helios St. Elisabeth Klinik Oberhausen", "lat": 50.6628028, "lon": 9.7665828, "city": "Oberhausen, Rheinland", "state": "Nordrhein-Westfalen"}, {"name": "Herz-Jesu-Krankenhaus Fulda", "lat": 50.5633071, "lon": 9.6733013, "city": "Fulda", "state": "Hessen"}, {"name": "Klinikum Fulda", "lat": 50.5467606, "lon": 9.7060983, "city": "Fulda", "state": "Hessen"}, {"name": "St. Josefs Krankenhaus Balserische Stiftung", "lat": 50.5786817, "lon": 8.6680316, "city": "Gie\u00dfen", "state": "Hessen"}, {"name": "Lahn-Dill-Kliniken", "lat": 50.7465397, "lon": 8.2854078, "city": "Dillenburg", "state": "Hessen"}, {"name": "Klinik Dr. Fr\u00fchauf", "lat": 50.0911777, "lon": 8.7889198, "city": "Offenbach", "state": "Hessen"}, {"name": "Klinikum Kassel", "lat": 51.3793857, "lon": 9.0079263, "city": "Kassel", "state": "Hessen"}, {"name": "Gemeinschaftsklinikum Mittelrhein gGmbH", "lat": 50.2024581, "lon": 7.8559045, "city": "Koblenz", "state": "Rheinland-Pfalz"}, {"name": "Universit\u00e4tsklinikum Augsburg A\u00f6R", "lat": 48.3849306, "lon": 10.8399721, "city": "Augsburg", "state": "Bayern"}, {"name": "Universit\u00e4tsmedizin Greifswald K\u00f6rperschaft des \u00f6ffentlichen Rechts", "lat": 54.0880889, "lon": 13.405878, "city": "Greifswald", "state": "Mecklenburg-Vorpommern"}, {"name": "Evangelisches Krankenhaus Oldenburg", "lat": 53.1426959, "lon": 8.2050814, "city": "Oldenburg (Oldb.)", "state": "Niedersachsen"}, {"name": "Pius-Hospital", "lat": 53.1436923, "lon": 8.2111674, "city": "Oldenburg (Oldb.)", "state": "Niedersachsen"}, {"name": "Evangelisches Klinikum Bethel gGmbH", "lat": 52.0424293, "lon": 8.5402014, "city": "Bielefeld", "state": "Nordrhein-Westfalen"}, {"name": "Klinikum Ingolstadt GmbH", "lat": 48.7698276, "lon": 11.3764486, "city": "Ingolstadt", "state": "Bayern"}, {"name": "Helios Kliniken Schwerin", "lat": 53.6515139, "lon": 11.4085471, "city": "Schwerin", "state": "Mecklenburg-Vorpommern"}, {"name": "Gemeinschaftskrankenhaus Bonn gGmbH", "lat": 50.728329, "lon": 7.0983726, "city": "Bonn", "state": "Nordrhein-Westfalen"}, {"name": "Donau-Ries Kliniken", "lat": 48.9564304, "lon": 10.5973605, "city": "Oettingen in Bayern", "state": "Bayern"}, {"name": "Kinderklinik Sch\u00f6mberg", "lat": 48.7921829, "lon": 8.6473541, "city": "Sch\u00f6mberg bei Neuenb\u00fcrg", "state": "Baden-W\u00fcrttemberg"}, {"name": "DRK Krankenhaus Grimmen GmbH", "lat": 54.120055, "lon": 13.1074335, "city": "S\u00fcderholz", "state": "Mecklenburg-Vorpommern"}, {"name": "Waldkliniken Eisenberg GmbH", "lat": 50.9569235, "lon": 11.8834066, "city": "Eisenberg", "state": "Th\u00fcringen"}, {"name": "Allgemeines Krankenhaus Celle", "lat": 52.6288166, "lon": 10.0859848, "city": "Celle", "state": "Niedersachsen"}, {"name": "Paracelsus-Nordseeklinik Helgoland", "lat": 50.3292314, "lon": 12.2900372, "city": "Helgoland", "state": "Schleswig-Holstein"}, {"name": "Benedictus Krankenhaus Feldafing GmbH & Co. KG", "lat": 47.9377302, "lon": 11.2940379, "city": "Feldafing", "state": "Bayern"}, {"name": "Paracelsus-Klinik Bremen GmbH", "lat": 53.7487216, "lon": 10.0070122, "city": "Bremen", "state": "Bremen"}, {"name": "DRK-Krankenhaus M\u00f6lln-Ratzeburg", "lat": 53.6899657, "lon": 10.7781976, "city": "Ratzeburg", "state": "Schleswig-Holstein"}, {"name": "AMEOS Klinikum L\u00fcbeck", "lat": 54.2965352, "lon": 10.1850112, "city": "L\u00fcbeck", "state": "Schleswig-Holstein"}, {"name": "Krankenhaus Reinbek St. Adolf-Stift GmbH", "lat": 53.5097589, "lon": 10.2406783, "city": "Reinbek", "state": "Schleswig-Holstein"}, {"name": "AMEOS Klinika Neustadt, L\u00fcbeck und Eutin", "lat": 54.1328431, "lon": 10.6014627, "city": "Eutin", "state": "Schleswig-Holstein"}, {"name": "Deister-S\u00fcntel-Klinik GmbH", "lat": 52.2082695, "lon": 9.4721466, "city": "Bad M\u00fcnder am Deister", "state": "Niedersachsen"}, {"name": "AMEOS Klinikum L\u00fcbeck", "lat": 54.0824338, "lon": 10.6838417, "city": "L\u00fcbeck", "state": "Schleswig-Holstein"}, {"name": "Ostsee-Klinik - Bad Schwartau", "lat": 53.9154532, "lon": 10.6977777, "city": "Bad Schwartau", "state": "Schleswig-Holstein"}, {"name": "Helios Agnes Karll Krankenhaus", "lat": 53.9224211, "lon": 10.693842, "city": "Bad Schwartau", "state": "Schleswig-Holstein"}, {"name": "St. Marien Krankenhaus Lampertheim", "lat": 49.597042, "lon": 8.4673311, "city": "Lampertheim", "state": "Hessen"}, {"name": "Sch\u00f6n Klinik Rendsburg-Eckernf\u00f6rde SE & Co. KG", "lat": 54.4830698, "lon": 9.8166113, "city": "Eckernf\u00f6rde", "state": "Schleswig-Holstein"}, {"name": "Dr. Becker Kiliani-Klinik AKUT", "lat": 51.49224, "lon": 8.1173597, "city": "Bad Windsheim", "state": "Bayern"}, {"name": "Cellitinnen-Krankenhaus Maria-Hilf", "lat": 50.9521023, "lon": 6.6374387, "city": "Bergheim, Erft", "state": "Nordrhein-Westfalen"}, {"name": "Kerckhoff-Klinik", "lat": 50.3697055, "lon": 8.7425366, "city": "Bad Nauheim", "state": "Hessen"}, {"name": "Kaiserin-Auguste-Victoria-Krankenhaus", "lat": 50.6041676, "lon": 8.3846703, "city": "Ehringshausen", "state": "Hessen"}, {"name": "VAMED Klinik Kipfenberg GmbH", "lat": 49.1090578, "lon": 11.4471272, "city": "Kipfenberg", "state": "Bayern"}, {"name": "GFO Kliniken Bonn", "lat": 50.7172056, "lon": 7.0938969, "city": "Bonn", "state": "Nordrhein-Westfalen"}, {"name": "Hardtwaldklinik II Akutbereich", "lat": 51.0631408, "lon": 9.1685884, "city": "Bad Zwesten", "state": "Hessen"}, {"name": "Kreiskrankenhaus Frankenberg", "lat": 51.061805, "lon": 8.7919671, "city": "Frankenberg", "state": "Hessen"}, {"name": "MEDIAN Klinik Berus", "lat": 50.7942445, "lon": 8.3211055, "city": "\u00dcberherrn-Berus", "state": "Saarland"}, {"name": "VAMED Klinik Schloss Pulsnitz", "lat": 51.1795409, "lon": 14.0139232, "city": "Pulsnitz", "state": "Sachsen"}, {"name": "ASKLEPIOS S\u00fcdpfalzkliniken", "lat": 47.7565875, "lon": 11.550899, "city": "Germersheim", "state": "Rheinland-Pfalz"}, {"name": "Robert-Bosch-Krankenhaus", "lat": 48.7721051, "lon": 9.1880601, "city": "Stuttgart", "state": "Baden-W\u00fcrttemberg"}, {"name": "ASKLEPIOS Klinikum Bad Abbach GmbH", "lat": 48.932716, "lon": 12.0381875, "city": "Bad Abbach", "state": "Bayern"}, {"name": "Main-Kinzig-Kliniken gGmbH", "lat": 50.3541778, "lon": 9.5273952, "city": "Schl\u00fcchtern", "state": "Hessen"}, {"name": "Klinikum Stuttgart", "lat": 48.8105206, "lon": 9.2372339, "city": "Stuttgart", "state": "Baden-W\u00fcrttemberg"}, {"name": "HEMERA Klinik", "lat": 50.1977809, "lon": 10.0686836, "city": "Bad Kissingen", "state": "Bayern"}, {"name": "Carl-von-Basedow-Klinikum Saalekreis GmbH", "lat": 51.3663941, "lon": 11.9939723, "city": "Merseburg", "state": "Sachsen-Anhalt"}, {"name": "Sana-Klinikum Remscheid GmbH", "lat": 51.2500355, "lon": 7.1440753, "city": "Remscheid", "state": "Nordrhein-Westfalen"}, {"name": "Sana Kliniken des Landkreises Cham GmbH", "lat": 48.1119692, "lon": 9.7795695, "city": "Cham", "state": "Bayern"}, {"name": "Diakonie-Krankenhaus Wehrda", "lat": 50.829184, "lon": 8.7614397, "city": "Marburg", "state": "Hessen"}, {"name": "Johanniter - Klinik f\u00fcr Geriatrie Geesthacht", "lat": 51.4120651, "lon": 6.6992298, "city": "Geesthacht", "state": "Schleswig-Holstein"}, {"name": "Helios Kliniken Herzberg und Osterode GmbH", "lat": 51.6694064, "lon": 10.3431348, "city": "Herzberg am Harz", "state": "Niedersachsen"}, {"name": "AMEOS Klinikum Haldensleben", "lat": 52.2821615, "lon": 11.3704754, "city": "Haldensleben", "state": "Sachsen-Anhalt"}, {"name": "Krankenhaus zum Guten Hirten", "lat": 49.487739, "lon": 8.3844303, "city": "Ludwigshafen am Rhein", "state": "Rheinland-Pfalz"}, {"name": "Kreiskrankenhaus St. Franziskus Saarburg", "lat": 49.6028926, "lon": 6.5382056, "city": "Saarburg, Saar", "state": "Rheinland-Pfalz"}, {"name": "Klinik Dr. Steib", "lat": 50.1842678, "lon": 8.4707716, "city": "K\u00f6nigstein", "state": "Hessen"}, {"name": "Klinikum Wahrendorff GmbH", "lat": 52.343839, "lon": 9.9318014, "city": "Hannover", "state": "Niedersachsen"}, {"name": "Klinik f\u00fcr Kinderneurologie und Sozialp\u00e4diatrie", "lat": 49.0006276, "lon": 8.8009491, "city": "Maulbronn", "state": "Baden-W\u00fcrttemberg"}, {"name": "Evangelisches Krankenhaus Paul-Gerhardt-Stift", "lat": 52.5042123, "lon": 13.3641845, "city": "Lutherstadt Wittenberg", "state": "Sachsen-Anhalt"}, {"name": "Evangelische Stiftung Tannenhof", "lat": 51.2056692, "lon": 7.2259558, "city": "Remscheid", "state": "Nordrhein-Westfalen"}, {"name": "St. Franziskus-Hospital gGmbH Winterberg", "lat": 51.1932756, "lon": 8.5373788, "city": "Winterberg, Westfalen", "state": "Nordrhein-Westfalen"}, {"name": "Helios Fachkrankenhaus Vogelsang-Gommern", "lat": 52.0837182, "lon": 11.7808336, "city": "Gommern", "state": "Sachsen-Anhalt"}, {"name": "Fachklinik Katzenelnbogen", "lat": 50.2686196, "lon": 7.9812932, "city": "Katzenelnbogen", "state": "Rheinland-Pfalz"}, {"name": "Universit\u00e4tsklinikum T\u00fcbingen", "lat": 48.5263949, "lon": 9.0507914, "city": "Reutlingen", "state": "Baden-W\u00fcrttemberg"}, {"name": "Klinik Sch\u00f6neberg", "lat": 52.4986384, "lon": 13.3446565, "city": "Berlin", "state": "Berlin"}, {"name": "Hunsr\u00fcck Klinik", "lat": 49.8362133, "lon": 7.8643364, "city": "Simmern, Hunsr\u00fcck", "state": "Rheinland-Pfalz"}, {"name": "KMG Klinik Boizenburg GmbH", "lat": 53.3773317, "lon": 10.7173995, "city": "Boizenburg/Elbe", "state": "Mecklenburg-Vorpommern"}, {"name": "ASKLEPIOS Klinik Parchim", "lat": 53.4299062, "lon": 11.8540774, "city": "Parchim", "state": "Mecklenburg-Vorpommern"}, {"name": "Dietrich-Bonhoeffer-Klinikum", "lat": 53.7366463, "lon": 12.7556962, "city": "Altentreptow", "state": "Mecklenburg-Vorpommern"}, {"name": "Bodden-Kliniken Ribnitz-Damgarten GmbH", "lat": 54.2364304, "lon": 12.4441598, "city": "Ribnitz-Damgarten", "state": "Mecklenburg-Vorpommern"}, {"name": "Sophien- und Hufeland-Klinikum gGmbH", "lat": 50.9603358, "lon": 11.3221058, "city": "Weimar", "state": "Th\u00fcringen"}, {"name": "Klinikum St. Georg GmbH, Hauptstandort Leipzig Eutritzsch", "lat": 51.3180143, "lon": 12.3024052, "city": "Leipzig", "state": "Sachsen"}, {"name": "Helios Endo-Klinik Hamburg GmbH", "lat": 48.2653705, "lon": 11.4283747, "city": "Hamburg", "state": "Hamburg"}, {"name": "Helios Hanseklinikum Stralsund GmbH", "lat": 54.3284936, "lon": 13.0814709, "city": "Stralsund", "state": "Mecklenburg-Vorpommern"}, {"name": "Klinik f\u00fcr dynamische Psychiatrie M\u00fcnchen GmbH", "lat": 48.0798625, "lon": 11.5567753, "city": "M\u00fcnchen", "state": "Bayern"}, {"name": "Helios Klinik Cuxhaven GmbH", "lat": 53.8524112, "lon": 8.6927613, "city": "Cuxhaven", "state": "Niedersachsen"}, {"name": "Helios Klinik Lengerich", "lat": 53.4559446, "lon": 8.4417882, "city": "Lengerich, Westfalen", "state": "Nordrhein-Westfalen"}, {"name": "Breitenbrunn", "lat": 50.4742706, "lon": 12.7091214, "city": "Breitenbrunn", "state": "Sachsen"}, {"name": "Klinikum Penzberg", "lat": 47.7545897, "lon": 11.3756617, "city": "Penzberg", "state": "Bayern"}, {"name": "Evangelisches Klinikum Bethel gGmbH", "lat": 52.0113194, "lon": 8.5314571, "city": "Bielefeld", "state": "Nordrhein-Westfalen"}, {"name": "VAMED Ostseeklinik Damp", "lat": 54.585639, "lon": 10.0223288, "city": "Damp", "state": "Schleswig-Holstein"}, {"name": "Krankenhaus Mara gGmbH", "lat": 52.0069768, "lon": 8.5281024, "city": "Bielefeld", "state": "Nordrhein-Westfalen"}, {"name": "Vinzentius-Krankenhaus Landau", "lat": 49.1901089, "lon": 8.1143065, "city": "Landau in der Pfalz", "state": "Rheinland-Pfalz"}, {"name": "Christliches Krankenhaus Quakenbr\u00fcck", "lat": 52.6678377, "lon": 7.9371716, "city": "Quakenbr\u00fcck", "state": "Niedersachsen"}, {"name": "Waldklinik Bernburg GmbH, Parkinson-Spezialklinik", "lat": 51.7934816, "lon": 11.7183607, "city": "Bernburg", "state": "Sachsen-Anhalt"}, {"name": "AMEOS Klinikum Haldensleben", "lat": 53.8486416, "lon": 13.6995745, "city": "Haldensleben", "state": "Sachsen-Anhalt"}, {"name": "Rheinland Klinikum", "lat": 51.0730179, "lon": 6.8086842, "city": "Dormagen", "state": "Nordrhein-Westfalen"}, {"name": "Diana Kliniken", "lat": 53.0817113, "lon": 10.5896783, "city": "Bad Bevensen", "state": "Niedersachsen"}, {"name": "INI International Neuroscience Institute Hannover", "lat": 52.3901791, "lon": 9.7967442, "city": "Hannover", "state": "Niedersachsen"}, {"name": "St. Elisabeth Krankenhaus Leipzig gGmbH", "lat": 51.3030542, "lon": 12.3785294, "city": "Leipzig", "state": "Sachsen"}, {"name": "Krankenhaus St. Elisabeth gGmbH", "lat": 52.5210594, "lon": 8.1942281, "city": "Damme, D\u00fcmmer", "state": "Niedersachsen"}, {"name": "Klinik Vincentinum GmbH & Co. KG", "lat": 48.3745635, "lon": 10.9046769, "city": "Augsburg", "state": "Bayern"}, {"name": "DRK Krankenhaus Lichtenstein", "lat": 50.7485377, "lon": 12.6350122, "city": "Lichtenstein", "state": "Sachsen"}, {"name": "Kreiskrankenhaus Herrenberg", "lat": 48.5916921, "lon": 8.8751692, "city": "Herrenberg im G\u00e4u", "state": "Baden-W\u00fcrttemberg"}, {"name": "NEXUS-Klinik Baden-Baden", "lat": 48.7485892, "lon": 8.2184347, "city": "Baden-Baden", "state": "Baden-W\u00fcrttemberg"}, {"name": "St.-Clemens-Hospital Geldern", "lat": 51.5282294, "lon": 6.3272743, "city": "Geldern", "state": "Nordrhein-Westfalen"}, {"name": "Kreiskrankenhaus St. Anna H\u00f6chstadt a. d. Aisch", "lat": 49.7059849, "lon": 10.8048746, "city": "H\u00f6chstadt a. d. Aisch", "state": "Bayern"}, {"name": "Kliniken der Stadt K\u00f6ln Standort Holweide", "lat": 50.9665107, "lon": 7.0581037, "city": "K\u00f6ln", "state": "Nordrhein-Westfalen"}, {"name": "Marienkrankenhaus Cochem", "lat": 50.1555986, "lon": 7.1794418, "city": "Cochem", "state": "Rheinland-Pfalz"}, {"name": "Herz-Jesu-Krankenhaus M\u00fcnster-Hiltrup", "lat": 51.909853, "lon": 7.6345117, "city": "M\u00fcnster, Westfalen", "state": "Nordrhein-Westfalen"}, {"name": "MEDIAN Klinik Bad Tennstedt", "lat": 54.1127223, "lon": 12.6530319, "city": "Bad Tennstedt", "state": "Th\u00fcringen"}, {"name": "Helios-Klinik Titisee-Neustadt", "lat": 47.925835, "lon": 8.1870965, "city": "Titisee-Neustadt", "state": "Baden-W\u00fcrttemberg"}, {"name": "Helios Rosmann Klinik Breisach", "lat": 48.0310358, "lon": 7.5863032, "city": "Breisach am Rhein", "state": "Baden-W\u00fcrttemberg"}, {"name": "Helios Klinikum Duisburg", "lat": 51.4532787, "lon": 6.7099434, "city": "Duisburg", "state": "Nordrhein-Westfalen"}, {"name": "Helios Klinikum M\u00fcnchen West", "lat": 52.7302528, "lon": 10.7396139, "city": "M\u00fcnchen", "state": "Bayern"}, {"name": "DIAKOVERE Henriettenstift", "lat": 52.3694158, "lon": 9.7549227, "city": "Hannover", "state": "Niedersachsen"}, {"name": "radprax Krankenhaus Plettenberg GmbH", "lat": 51.2131947, "lon": 7.8867037, "city": "Plettenberg", "state": "Nordrhein-Westfalen"}, {"name": "Stadtklinik Werdohl", "lat": 51.2570778, "lon": 7.7654125, "city": "Werdohl", "state": "Nordrhein-Westfalen"}, {"name": "Klinikum Aschaffenburg-Alzenau", "lat": 50.0697991, "lon": 9.0760149, "city": "Alzenau", "state": "Bayern"}, {"name": "Niels-Stensen-Kliniken Bramsche", "lat": 52.3442425, "lon": 8.230239, "city": "Bramsche, Hase", "state": "Niedersachsen"}, {"name": "Paracelsus-Nordseeklinik Helgoland", "lat": 51.3306329, "lon": 9.4226546, "city": "Helgoland", "state": "Schleswig-Holstein"}, {"name": "Entgiftungsstation im Wolfgang-Winckler-Haus", "lat": 50.1711903, "lon": 8.3909403, "city": "Kelkheim", "state": "Hessen"}, {"name": "m&i-Fachklinik Bad Liebenstein", "lat": 50.8134734, "lon": 10.3528973, "city": "Bad Liebenstein", "state": "Th\u00fcringen"}, {"name": "Klinik f\u00fcr Minimal Invasive Chirurgie", "lat": 52.4308341, "lon": 13.2180368, "city": "Berlin", "state": "Berlin"}, {"name": "DRK Fachklinik f\u00fcr Kinder- und Jugendpsychiatrie", "lat": 50.5435323, "lon": 7.1382406, "city": "Bad Neuenahr", "state": "Rheinland-Pfalz"}, {"name": "Donau-Ries Kliniken", "lat": 48.7246881, "lon": 10.7541188, "city": "Donauw\u00f6rth", "state": "Bayern"}, {"name": "AWO Psychiatriezentrum Halle GmbH", "lat": 51.4729349, "lon": 11.9172786, "city": "Halle (Saale)", "state": "Sachsen-Anhalt"}, {"name": "Waldhausklinik Deuringen gGmbH", "lat": 48.3652878, "lon": 10.8125282, "city": "Stadtbergen", "state": "Bayern"}, {"name": "MEDIAN Klinik Gunzenbachhof Baden-Baden", "lat": 49.2369121, "lon": 9.1068197, "city": "Baden-Baden", "state": "Baden-W\u00fcrttemberg"}, {"name": "Privatklinik Stillachhaus Betriebsgesellschaft mbH", "lat": 47.4067939, "lon": 10.2581675, "city": "Oberstdorf", "state": "Bayern"}, {"name": "Vital Klinik GmbH & Co. KG", "lat": 50.1005904, "lon": 9.0919765, "city": "Alzenau", "state": "Bayern"}, {"name": "Helios-Klinikum Pirna, Hauptstandort", "lat": 50.9586394, "lon": 13.9543677, "city": "Pirna", "state": "Sachsen"}, {"name": "Bezirkskrankenhaus Landshut", "lat": 48.5365218, "lon": 12.1331538, "city": "Landshut", "state": "Bayern"}, {"name": "LUP Klinikum Helene von B\u00fclow gGmbH", "lat": 53.3316639, "lon": 11.4981439, "city": "Hagenow", "state": "Mecklenburg-Vorpommern"}, {"name": "Krankenhaus Neuwittelsbach", "lat": 48.1569669, "lon": 11.525449, "city": "M\u00fcnchen", "state": "Bayern"}, {"name": "Klinikum Hochsauerland GmbH", "lat": 51.4014473, "lon": 8.0727986, "city": "Arnsberg, Westfalen", "state": "Nordrhein-Westfalen"}, {"name": "Krankenhaus Buchholz und Winsen gGmbH Krankenhaus Winsen", "lat": 53.3498609, "lon": 10.2005899, "city": "Winsen (Luhe)", "state": "Niedersachsen"}, {"name": "Kreiskliniken Kassel", "lat": 51.3205497, "lon": 9.190788, "city": "Wolfhagen", "state": "Hessen"}, {"name": "Dr. Lubos Kliniken Bogenhausen", "lat": 48.1485542, "lon": 11.6145874, "city": "M\u00fcnchen", "state": "Bayern"}, {"name": "Klinik Josephinum gAG", "lat": 48.1455229, "lon": 11.581378, "city": "M\u00fcnchen", "state": "Bayern"}, {"name": "Sana Klinikum Hameln-Pyrmont", "lat": 52.1075835, "lon": 9.3517303, "city": "Hameln", "state": "Niedersachsen"}, {"name": "Kinderklinik Garmisch-Partenkirchen gGmbH Deutsches Zentrum f\u00fcr Kinder- und Jugendrheumatologie", "lat": 47.4871299, "lon": 11.1026021, "city": "Garmisch-Partenkirchen", "state": "Bayern"}, {"name": "Thoraxklinik Heidelberg", "lat": 49.4178236, "lon": 8.6661399, "city": "Heidelberg", "state": "Baden-W\u00fcrttemberg"}, {"name": "MEDIAN Klinik NRZ Wiesbaden", "lat": 52.0862359, "lon": 11.6375143, "city": "Wiesbaden", "state": "Hessen"}, {"name": "Klinikum Dortmund gGmbH", "lat": 51.5083612, "lon": 7.4574824, "city": "Dortmund", "state": "Nordrhein-Westfalen"}, {"name": "Klinikum N\u00fcrnberg A\u00f6R", "lat": 49.4125329, "lon": 11.1485034, "city": "N\u00fcrnberg", "state": "Bayern"}, {"name": "Evangelisches Krankenhaus Wesel GmbH", "lat": 51.6596685, "lon": 6.6550799, "city": "Wesel am Rhein", "state": "Nordrhein-Westfalen"}, {"name": "SINOVA Sonnenberg Klinik", "lat": 48.7450539, "lon": 9.1441912, "city": "Stuttgart", "state": "Baden-W\u00fcrttemberg"}, {"name": "Klinikum St. Elisabeth Straubing GmbH", "lat": 48.8864331, "lon": 12.5906554, "city": "Straubing", "state": "Bayern"}, {"name": "Universit\u00e4tsklinikum Schleswig-Holstein", "lat": 54.3305428, "lon": 10.142576, "city": "Kiel", "state": "Schleswig-Holstein"}, {"name": "Universit\u00e4tsklinikum Aachen A\u00f6R", "lat": 50.7768538, "lon": 6.0433717, "city": "Aachen", "state": "Nordrhein-Westfalen"}, {"name": "ANregiomed gKU, A\u00f6R", "lat": 49.0749008, "lon": 10.3178893, "city": "Dinkelsb\u00fchl", "state": "Bayern"}, {"name": "Helios Klinikum Bonn/Rhein-Sieg", "lat": 50.7077079, "lon": 7.0325135, "city": "Bonn", "state": "Nordrhein-Westfalen"}, {"name": "Euregio Klinik Hannoverstra\u00dfe GmbH", "lat": 52.4430106, "lon": 7.0657531, "city": "Nordhorn", "state": "Niedersachsen"}, {"name": "KJF Klinik Hochried Kinder- und Jugendpsychiatrie und -psychotherapie", "lat": 47.6753231, "lon": 11.1799743, "city": "Murnau a. Staffelsee", "state": "Bayern"}, {"name": "Helios Klinikum Gifhorn GmbH", "lat": 52.4971139, "lon": 10.5479636, "city": "Gifhorn", "state": "Niedersachsen"}, {"name": "Krankenhaus der Barmherzigen Br\u00fcder Trier", "lat": 49.7625602, "lon": 6.6399032, "city": "Trier", "state": "Rheinland-Pfalz"}, {"name": "Helios Klinikum Bad Saarow", "lat": 48.1654458, "lon": 8.6123458, "city": "Bad Saarow", "state": "Brandenburg"}, {"name": "St. Anna Klinik", "lat": 52.7345257, "lon": 7.7546584, "city": "L\u00f6ningen", "state": "Niedersachsen"}, {"name": "Klinikum Worms gGmbH", "lat": 49.6493847, "lon": 8.3197991, "city": "Worms", "state": "Rheinland-Pfalz"}, {"name": "Helios Klinikum M\u00fcnchen West", "lat": 52.9719728, "lon": 10.5321513, "city": "M\u00fcnchen", "state": "Bayern"}, {"name": "MEDIAN Klinik Berus", "lat": 50.2867588, "lon": 9.3601616, "city": "\u00dcberherrn-Berus", "state": "Saarland"}, {"name": "Sana-Klinikum Remscheid GmbH", "lat": 51.1614079, "lon": 7.1893804, "city": "Remscheid", "state": "Nordrhein-Westfalen"}, {"name": "St. Elisabeth-Krankenhaus Salzgitter gemein\u00fctzige Gesellschaft mbH", "lat": 52.0454172, "lon": 10.3716055, "city": "Salzgitter", "state": "Niedersachsen"}, {"name": "Krankenhaus Agatharied KU", "lat": 47.7677815, "lon": 11.8271574, "city": "Hausham", "state": "Bayern"}, {"name": "Sch\u00fcchtermann-Klinik", "lat": 52.1126522, "lon": 8.1643976, "city": "Bad Rothenfelde", "state": "Niedersachsen"}, {"name": "Ortenau Klinikum Offenburg-Kehl", "lat": 48.5677063, "lon": 7.811834, "city": "Kehl", "state": "Baden-W\u00fcrttemberg"}, {"name": "Niels-Stensen-Kliniken Bramsche", "lat": 52.1986424, "lon": 8.3364486, "city": "Bramsche, Hase", "state": "Niedersachsen"}, {"name": "Klinikum S\u00fcdstadt Rostock", "lat": 54.0715303, "lon": 12.107871, "city": "Rostock", "state": "Mecklenburg-Vorpommern"}, {"name": "Dreifaltigkeits-Hospital gGmbH", "lat": 51.6151728, "lon": 8.3387207, "city": "Erwitte", "state": "Nordrhein-Westfalen"}, {"name": "AMEOS Klinikum Haldensleben", "lat": 51.7823822, "lon": 11.7352523, "city": "Haldensleben", "state": "Sachsen-Anhalt"}, {"name": "Marienhaus Klinikum Bendorf - Neuwied - Waldbreitbach", "lat": 50.4294912, "lon": 7.4649349, "city": "Neuwied", "state": "Rheinland-Pfalz"}, {"name": "Universit\u00e4tsklinikum Erlangen", "lat": 49.5995286, "lon": 11.0110011, "city": "Erlangen", "state": "Bayern"}, {"name": "Klinikum Darmstadt", "lat": 49.8530574, "lon": 8.6623402, "city": "Darmstadt", "state": "Hessen"}, {"name": "Kath. Marienkrankenhaus gGmbH", "lat": 53.559017, "lon": 10.0311583, "city": "Hamburg", "state": "Hamburg"}, {"name": "Klinik f\u00fcr Manuelle Therapie", "lat": 51.6902634, "lon": 7.8431249, "city": "Hamm, Westfalen", "state": "Nordrhein-Westfalen"}, {"name": "Universit\u00e4tsklinikum W\u00fcrzburg", "lat": 49.8044728, "lon": 9.9436281, "city": "W\u00fcrzburg", "state": "Bayern"}, {"name": "Klinik- und Rehabilitationszentrum", "lat": 51.6155008, "lon": 9.5900859, "city": "Wesertal", "state": "Hessen"}, {"name": "Helios Klinikum M\u00fcnchen West", "lat": 48.8896301, "lon": 8.7135651, "city": "M\u00fcnchen", "state": "Bayern"}, {"name": "Vinzenz von Paul Hospital - Klinik Rottenm\u00fcnster", "lat": 48.149497, "lon": 8.6344904, "city": "Rottweil", "state": "Baden-W\u00fcrttemberg"}, {"name": "Klinikum St. Georg GmbH, Hauptstandort Leipzig Eutritzsch", "lat": 51.3845754, "lon": 12.3764904, "city": "Leipzig", "state": "Sachsen"}, {"name": "Diakonissenkrankenhaus Dresden", "lat": 51.0631073, "lon": 13.7614826, "city": "Dresden", "state": "Sachsen"}, {"name": "Hochtaunus-Kliniken gGmbH", "lat": 50.2121188, "lon": 8.6190349, "city": "Bad Homburg", "state": "Hessen"}, {"name": "Helios Klinikum Bad Saarow", "lat": 51.4874585, "lon": 9.1409444, "city": "Bad Saarow", "state": "Brandenburg"}, {"name": "Klinikum Leverkusen", "lat": 51.0323413, "lon": 7.0331652, "city": "Leverkusen", "state": "Nordrhein-Westfalen"}, {"name": "Universit\u00e4tsklinikum Carl Gustav Carus an der TU Dresden", "lat": 51.0566641, "lon": 13.7825131, "city": "Dresden", "state": "Sachsen"}, {"name": "Klinikum Aschaffenburg-Alzenau", "lat": 49.9762496, "lon": 9.1873771, "city": "Aschaffenburg", "state": "Bayern"}, {"name": "Krankenhaus der Barmherzigen Br\u00fcder Trier", "lat": 49.762664, "lon": 6.6404278, "city": "Trier", "state": "Rheinland-Pfalz"}, {"name": "Eifelklinik St. Brigida", "lat": 50.6047475, "lon": 6.3014279, "city": "Simmerath", "state": "Nordrhein-Westfalen"}, {"name": "Marienkrankenhaus Schwerte", "lat": 51.44448, "lon": 7.5746686, "city": "Schwerte", "state": "Nordrhein-Westfalen"}, {"name": "Akutklinik Am sch\u00f6nen Moos", "lat": 48.0135235, "lon": 9.4826695, "city": "Bad Saulgau", "state": "Baden-W\u00fcrttemberg"}, {"name": "ASKLEPIOS-ASB Klinik Radeberg", "lat": 51.1233926, "lon": 13.9304712, "city": "Radeberg", "state": "Sachsen"}, {"name": "PsoriSol Hautklinik GmbH", "lat": 49.5085043, "lon": 11.4344535, "city": "Hersbruck", "state": "Bayern"}, {"name": "AGAPLESION Ev. Bathildiskrankenhaus", "lat": 51.9852959, "lon": 9.2736752, "city": "Bad Pyrmont", "state": "Niedersachsen"}, {"name": "Klinikum Region Hannover GmbH Psychiatrie Langenhagen", "lat": 52.4253342, "lon": 9.4352645, "city": "Hannover", "state": "Niedersachsen"}, {"name": "Klinikum Region Hannover GmbH Psychiatrie Langenhagen", "lat": 52.4441631, "lon": 9.7400304, "city": "Langenhagen", "state": "Niedersachsen"}, {"name": "Klinikum der Johannes Gutenberg-Universit\u00e4t Mainz", "lat": 49.9923335, "lon": 8.2595793, "city": "Wiesbaden", "state": "Hessen"}, {"name": "Sophien-Klinik GmbH", "lat": 52.3621536, "lon": 9.7772505, "city": "Hannover", "state": "Niedersachsen"}, {"name": "Kreiskrankenhaus Mechernich GmbH", "lat": 50.5333723, "lon": 6.487419, "city": "Schleiden, Eifel", "state": "Nordrhein-Westfalen"}, {"name": "Universit\u00e4tsklinikum Hamburg-Eppendorf (UKE)", "lat": 53.5902671, "lon": 9.9746838, "city": "Hamburg", "state": "Hamburg"}, {"name": "St. Marienkrankenhaus und St. Annastiftskrankenhaus Ludwigshafen", "lat": 49.4575866, "lon": 8.4088909, "city": "Ludwigshafen am Rhein", "state": "Rheinland-Pfalz"}, {"name": "Sana Kliniken L\u00fcbeck GmbH", "lat": 53.8487442, "lon": 10.6891488, "city": "L\u00fcbeck", "state": "Schleswig-Holstein"}, {"name": "ASKLEPIOS Klinik Nord", "lat": 48.0662673, "lon": 11.3525188, "city": "Hamburg", "state": "Hamburg"}, {"name": "Frankfurter Rotkreuz-Kliniken", "lat": 50.117144, "lon": 8.697921, "city": "Frankfurt", "state": "Hessen"}, {"name": "Saarland-Heilst\u00e4tten GmbH SHG-Kliniken V\u00f6lklingen", "lat": 49.2572554, "lon": 6.8525006, "city": "V\u00f6lklingen", "state": "Saarland"}, {"name": "Johannes-Diakonie Mosbach", "lat": 49.3622266, "lon": 9.1522483, "city": "Mosbach", "state": "Baden-W\u00fcrttemberg"}, {"name": "St\u00e4dtische Klinikum Karlsruhe", "lat": 49.0154826, "lon": 8.374507, "city": "Karlsruhe", "state": "Baden-W\u00fcrttemberg"}, {"name": "St. Marienhospital Vechta gGmbH", "lat": 52.7254541, "lon": 8.2874888, "city": "Vechta", "state": "Niedersachsen"}, {"name": "Helios Klinik M\u00fcnchen Perlach", "lat": 51.1130653, "lon": 7.385356, "city": "M\u00fcnchen", "state": "Bayern"}, {"name": "ASKLEPIOS FachklinikumTiefenbrunn", "lat": 51.4991518, "lon": 9.8745183, "city": "Rosdorf", "state": "Niedersachsen"}, {"name": "Ammerland Klinik GmbH", "lat": 53.2579655, "lon": 7.917816, "city": "Westerstede", "state": "Niedersachsen"}, {"name": "AMEOS Klinikum Sch\u00f6nebeck", "lat": 52.2860443, "lon": 8.0536599, "city": "Sch\u00f6nebeck", "state": "Sachsen-Anhalt"}, {"name": "Harz-Klinikum \"Dorothea Christiane Erxleben\" GmbH", "lat": 51.792366, "lon": 10.9552658, "city": "Blankenburg (Harz)", "state": "Sachsen-Anhalt"}, {"name": "AMEOS Klinikum Ueckerm\u00fcnde", "lat": 52.0044494, "lon": 11.7278532, "city": "Anklam", "state": "Mecklenburg-Vorpommern"}, {"name": "SALUS gGmbH Fachklinikum Bernburg", "lat": 51.7868235, "lon": 11.7270363, "city": "Bernburg (Saale)", "state": "Sachsen-Anhalt"}, {"name": "St. Rochus-Hospital Telgte GmbH", "lat": 51.9790205, "lon": 7.7639045, "city": "Ahlen, Westfalen", "state": "Nordrhein-Westfalen"}, {"name": "Klinikum Landsberg am Lech", "lat": 48.0483713, "lon": 10.8556235, "city": "Landsberg am Lech", "state": "Bayern"}, {"name": "Evangelisches Krankenhaus K\u00f6nigin Elisabeth Herzberge gGmbH", "lat": 52.5274171, "lon": 13.5095087, "city": "Berlin", "state": "Berlin"}, {"name": "Krankenhaus f\u00fcr Psychiatrie, Psychoth. u. Psychosom. Medizin des Bezirks Unterfranken", "lat": 49.9779401, "lon": 9.1909482, "city": "Aschaffenburg", "state": "Bayern"}, {"name": "Charit\u00e9 Universit\u00e4tsmedizin Berlin", "lat": 52.4420418, "lon": 13.3208167, "city": "Berlin", "state": "Berlin"}, {"name": "Sana Kliniken L\u00fcbeck GmbH", "lat": 48.1118261, "lon": 9.7794077, "city": "L\u00fcbeck", "state": "Schleswig-Holstein"}, {"name": "gKU Wertachkliniken Wertachklinik Schwabm\u00fcnchen", "lat": 48.1759759, "lon": 10.7462699, "city": "Schwabm\u00fcnchen", "state": "Bayern"}, {"name": "Klinikum Starnberg", "lat": 48.0067389, "lon": 11.3352883, "city": "Starnberg", "state": "Bayern"}, {"name": "Universit\u00e4tsklinikum Essen", "lat": 51.4347056, "lon": 6.9883548, "city": "Duisburg", "state": "Nordrhein-Westfalen"}, {"name": "Sana HANSE-Klinikum Wismar GmbH", "lat": 53.8844672, "lon": 11.4385667, "city": "Wismar", "state": "Mecklenburg-Vorpommern"}, {"name": "St. Elisabeth-Hospital Beckum GmbH", "lat": 51.7526753, "lon": 8.0388477, "city": "Beckum, Westfalen", "state": "Nordrhein-Westfalen"}, {"name": "Johanniter-Krankenhaus Geesthacht", "lat": 53.4316441, "lon": 10.3853014, "city": "Geesthacht", "state": "Schleswig-Holstein"}, {"name": "Klinikum Bad Bramstedt", "lat": 53.9039512, "lon": 9.8934413, "city": "Bad Bramstedt", "state": "Schleswig-Holstein"}, {"name": "Psychiatrisches Krankenhaus Rickling", "lat": 53.9969023, "lon": 10.1750382, "city": "Rickling", "state": "Schleswig-Holstein"}, {"name": "ASKLEPIOS Klinikum Harburg", "lat": 53.4595927, "lon": 9.9477502, "city": "Hamburg", "state": "Hamburg"}, {"name": "Klinik Dr. Guth", "lat": 53.5568574, "lon": 9.8538555, "city": "Hamburg", "state": "Hamburg"}, {"name": "AGAPLESION DIAKONIEKLINIKUM HAMBURG gGmbH", "lat": 53.5718116, "lon": 9.9661551, "city": "Hamburg", "state": "Hamburg"}, {"name": "Evangelisches Krankenhaus Alsterdorf gGmbH", "lat": 53.6141513, "lon": 10.0242727, "city": "Hamburg", "state": "Hamburg"}, {"name": "Katholisches Kinderkrankenhaus Wilhelmstift", "lat": 53.587338, "lon": 10.164885, "city": "Hamburg", "state": "Hamburg"}, {"name": "Evangelisches Krankenhaus Alsterdorf gGmbH", "lat": 53.6141513, "lon": 10.0242727, "city": "Hamburg", "state": "Hamburg"}, {"name": "Katholisches Kinderkrankenhaus Wilhelmstift", "lat": 53.587338, "lon": 10.164885, "city": "Hamburg", "state": "Hamburg"}, {"name": "Katholisches Kinderkrankenhaus Wilhelmstift", "lat": 53.587338, "lon": 10.164885, "city": "Hamburg", "state": "Hamburg"}, {"name": "Bundeswehrkrankenhaus Hamburg", "lat": 53.5952534, "lon": 10.0774097, "city": "Hamburg", "state": "Hamburg"}, {"name": "Katholisches Kinderkrankenhaus Wilhelmstift", "lat": 53.587338, "lon": 10.164885, "city": "Hamburg", "state": "Hamburg"}, {"name": "Katholisches Kinderkrankenhaus Wilhelmstift", "lat": 53.587338, "lon": 10.164885, "city": "Hamburg", "state": "Hamburg"}, {"name": "ASKLEPIOS Klinikum Harburg", "lat": 53.4595927, "lon": 9.9477502, "city": "Hamburg", "state": "Hamburg"}, {"name": "Helios Klinikum Salzgitter GmbH", "lat": 52.1544926, "lon": 10.3180927, "city": "Salzgitter", "state": "Niedersachsen"}, {"name": "Helios Klinik Wittingen GmbH", "lat": 52.7302528, "lon": 10.7396139, "city": "Wittingen", "state": "Niedersachsen"}, {"name": "Helios St. Marienberg Klinik Helmstedt", "lat": 52.2319847, "lon": 10.9996985, "city": "Helmstedt", "state": "Niedersachsen"}, {"name": "AWO Psychiatriezentrum", "lat": 52.2438432, "lon": 10.812723, "city": "K\u00f6nigslutter am Elm", "state": "Niedersachsen"}, {"name": "Helios Albert-Schweitzer-Klinik Northeim", "lat": 51.7294572, "lon": 9.9792081, "city": "Northeim", "state": "Niedersachsen"}, {"name": "Kirchberg Klinik", "lat": 51.6261947, "lon": 10.4688507, "city": "Bad Lauterberg im Harz", "state": "Niedersachsen"}, {"name": "Universit\u00e4tsmedizin G\u00f6ttingen", "lat": 51.5508411, "lon": 9.942862, "city": "G\u00f6ttingen", "state": "Niedersachsen"}, {"name": "Medizinische Hochschule Hannover", "lat": 52.383524, "lon": 9.8035698, "city": "Hannover", "state": "Niedersachsen"}, {"name": "Medizinische Hochschule Hannover", "lat": 52.383524, "lon": 9.8035698, "city": "Hannover", "state": "Niedersachsen"}, {"name": "Medizinische Hochschule Hannover", "lat": 52.383524, "lon": 9.8035698, "city": "Hannover", "state": "Niedersachsen"}, {"name": "Medizinische Hochschule Hannover", "lat": 52.383524, "lon": 9.8035698, "city": "Hannover", "state": "Niedersachsen"}, {"name": "Klinik Bassum", "lat": 52.8442486, "lon": 8.7284569, "city": "Bassum", "state": "Niedersachsen"}, {"name": "Klinik Sulingen", "lat": 52.683602, "lon": 8.8055324, "city": "Sulingen", "state": "Niedersachsen"}, {"name": "AMEOS Klinikum Alfeld", "lat": 51.994362, "lon": 9.8328582, "city": "Alfeld", "state": "Niedersachsen"}, {"name": "AMEOS Klinikum Hildesheim", "lat": 52.151027, "lon": 9.9766477, "city": "Hildesheim", "state": "Niedersachsen"}, {"name": "AMEOS Klinikum Hildesheim", "lat": 52.151027, "lon": 9.9766477, "city": "Hildesheim", "state": "Niedersachsen"}, {"name": "St. Bernward Krankenhaus", "lat": 52.1471624, "lon": 9.947384, "city": "Hildesheim", "state": "Niedersachsen"}, {"name": "Johanniter-Krankenhaus Gronau GmbH", "lat": 52.0820098, "lon": 9.7668802, "city": "Gronau (Leine)", "state": "Niedersachsen"}, {"name": "Kreiskrankenhaus Osterholz", "lat": 53.2332456, "lon": 8.7942852, "city": "Osterholz-Scharmbeck", "state": "Niedersachsen"}, {"name": "Psychiatrische Klinik Uelzen gGmbH", "lat": 52.9669548, "lon": 10.5284926, "city": "Uelzen, L\u00fcneburger Heide", "state": "Niedersachsen"}, {"name": "AMEOS Klinikum Osnabr\u00fcck", "lat": 52.2860443, "lon": 8.0536599, "city": "Osnabr\u00fcck", "state": "Niedersachsen"}, {"name": "Christliches Kinderhospital Osnabr\u00fcck", "lat": 52.2698941, "lon": 8.0530625, "city": "Osnabr\u00fcck", "state": "Niedersachsen"}, {"name": "Krankenhaus Norderney", "lat": 53.7160712, "lon": 7.1720602, "city": "Norderney", "state": "Niedersachsen"}, {"name": "MediClin Hedon-Klinik", "lat": 52.511984, "lon": 7.3580851, "city": "Lingen", "state": "Niedersachsen"}, {"name": "St. Bonifatius Hospital", "lat": 52.5244814, "lon": 7.3154594, "city": "Lingen", "state": "Niedersachsen"}, {"name": "Nordwest-Krankenhaus Sanderbusch GmbH", "lat": 53.5069054, "lon": 8.0090096, "city": "Sande", "state": "Niedersachsen"}, {"name": "Krankenhaus Rheiderland", "lat": 53.1684537, "lon": 7.3537725, "city": "Weener", "state": "Niedersachsen"}, {"name": "St. Bernhard-Hospital", "lat": 53.3239209, "lon": 8.4824012, "city": "Brake (Unterweser)", "state": "Niedersachsen"}, {"name": "Klinikum Bremerhaven-Reinkenheide gGmbH", "lat": 53.5377387, "lon": 8.6365604, "city": "Bremerhaven", "state": "Bremen"}, {"name": "Universit\u00e4tsklinikum D\u00fcsseldorf", "lat": 51.1959746, "lon": 6.7894365, "city": "D\u00fcsseldorf", "state": "Nordrhein-Westfalen"}, {"name": "Evangelisches Krankenhaus BETHESDA zu Duisburg GmbH", "lat": 51.4173778, "lon": 6.7613769, "city": "Duisburg", "state": "Nordrhein-Westfalen"}, {"name": "Johanniter-Krankenhaus Rheinhausen", "lat": 51.4120651, "lon": 6.6992298, "city": "Duisburg", "state": "Nordrhein-Westfalen"}, {"name": "St. Josef Krankenhaus Essen-Werden GmbH", "lat": 51.3891577, "lon": 7.0063882, "city": "Essen, Ruhr", "state": "Nordrhein-Westfalen"}, {"name": "Alexius/Josef Krankenhaus", "lat": 51.1912809, "lon": 6.7019633, "city": "Neuss", "state": "Nordrhein-Westfalen"}, {"name": "Alexius/Josef Krankenhaus", "lat": 51.1912809, "lon": 6.7019633, "city": "Neuss", "state": "Nordrhein-Westfalen"}, {"name": "Alexius/Josef Krankenhaus", "lat": 51.1912809, "lon": 6.7019633, "city": "Neuss", "state": "Nordrhein-Westfalen"}, {"name": "Johanna-Etienne-Krankenhaus", "lat": 51.2132298, "lon": 6.6585845, "city": "Neuss", "state": "Nordrhein-Westfalen"}, {"name": "Eduardus-Krankenhaus", "lat": 50.9325047, "lon": 6.9808828, "city": "K\u00f6ln", "state": "Nordrhein-Westfalen"}, {"name": "Krankenhaus J\u00fclich", "lat": 50.9260294, "lon": 6.3638991, "city": "J\u00fclich", "state": "Nordrhein-Westfalen"}, {"name": "Helios Klinik Wipperf\u00fcrth", "lat": 51.1132873, "lon": 7.3855148, "city": "Wipperf\u00fcrth", "state": "Nordrhein-Westfalen"}, {"name": "LWL-Klinik M\u00fcnster", "lat": 51.9783641, "lon": 7.6176104, "city": "M\u00fcnster, Westfalen", "state": "Nordrhein-Westfalen"}, {"name": "UKM - Universit\u00e4tsklinikum M\u00fcnster", "lat": 51.9625689, "lon": 7.59575, "city": "M\u00fcnster, Westfalen", "state": "Nordrhein-Westfalen"}, {"name": "Christophorus-Kliniken", "lat": 51.8273616, "lon": 7.2803578, "city": "D\u00fclmen", "state": "Nordrhein-Westfalen"}, {"name": "LWL-Klinik Herten", "lat": 51.5918187, "lon": 7.1272955, "city": "Herten, Westfalen", "state": "Nordrhein-Westfalen"}, {"name": "Elisabeth Krankenhaus Recklinghausen", "lat": 51.5677623, "lon": 7.2071942, "city": "Recklinghausen, Westfalen", "state": "Nordrhein-Westfalen"}, {"name": "Maria-Josef-Hospital Greven GmbH", "lat": 52.0880291, "lon": 7.6105761, "city": "Greven, Westfalen", "state": "Nordrhein-Westfalen"}, {"name": "LWL-Klinikum G\u00fctersloh", "lat": 51.8962346, "lon": 8.3504278, "city": "G\u00fctersloh", "state": "Nordrhein-Westfalen"}, {"name": "Helios Klinikum Warburg GmbH", "lat": 51.4874585, "lon": 9.1409444, "city": "Warburg, Westfalen", "state": "Nordrhein-Westfalen"}, {"name": "LWL-Klinik Paderborn", "lat": 51.7190025, "lon": 8.7636941, "city": "Paderborn", "state": "Nordrhein-Westfalen"}, {"name": "Berufsgenossenschaftliches Universit\u00e4tsklinikum Bergmannsheil gGmbH", "lat": 51.4682212, "lon": 7.2111606, "city": "Bochum", "state": "Nordrhein-Westfalen"}, {"name": "Universit\u00e4tsklinikum Knappschaftskrankenhaus Bochum", "lat": 51.4640955, "lon": 7.3272049, "city": "Bochum", "state": "Nordrhein-Westfalen"}, {"name": "Knappschaftskrankenhaus L\u00fctgendortmund", "lat": 51.5027431, "lon": 7.3300121, "city": "Dortmund", "state": "Nordrhein-Westfalen"}, {"name": "Evangelisches Krankenhaus Herne", "lat": 51.5338627, "lon": 7.2306001, "city": "Herne, Westfalen", "state": "Nordrhein-Westfalen"}, {"name": "St. Anna-Hospital", "lat": 51.537557, "lon": 7.1590304, "city": "Herne, Westfalen", "state": "Nordrhein-Westfalen"}, {"name": "St. Marien Hospital Eickel", "lat": 51.515214, "lon": 7.1822115, "city": "Herne, Westfalen", "state": "Nordrhein-Westfalen"}, {"name": "Orthop\u00e4dische Klinik Volmarstein", "lat": 51.369359, "lon": 7.3748619, "city": "Wetter (Ruhr)", "state": "Nordrhein-Westfalen"}, {"name": "Sauerlandklinik Hachen", "lat": 51.3832137, "lon": 7.9743939, "city": "Sundern (Sauerland)", "state": "Nordrhein-Westfalen"}, {"name": "Marienkrankenhaus Soest", "lat": 51.5749376, "lon": 8.1123508, "city": "Soest, Westfalen", "state": "Nordrhein-Westfalen"}, {"name": "Mariannen-Hospital Werl", "lat": 51.551304, "lon": 7.9063043, "city": "Werl", "state": "Nordrhein-Westfalen"}, {"name": "DGD Krankenhaus Sachsenhausen", "lat": 50.1063183, "lon": 8.6836318, "city": "Frankfurt", "state": "Hessen"}, {"name": "Hospital zum Heiligen Geist", "lat": 50.1103289, "lon": 8.6928758, "city": "Frankfurt", "state": "Hessen"}, {"name": "Krankenhaus Nordwest", "lat": 50.1508859, "lon": 8.617688, "city": "Frankfurt", "state": "Hessen"}, {"name": "St. Elisabethen-Krankenhaus", "lat": 50.1265675, "lon": 8.6384716, "city": "Frankfurt", "state": "Hessen"}, {"name": "Universit\u00e4tsklinikum Frankfurt", "lat": 50.0936814, "lon": 8.6558742, "city": "Frankfurt", "state": "Hessen"}, {"name": "Ketteler Krankenhaus", "lat": 50.0943532, "lon": 8.7846122, "city": "Offenbach", "state": "Hessen"}, {"name": "DKD HELIOS Klinik Wiesbaden", "lat": 50.0866424, "lon": 8.2699327, "city": "Wiesbaden", "state": "Hessen"}, {"name": "Klinikum Hanau", "lat": 50.1334486, "lon": 8.9237507, "city": "Hanau", "state": "Hessen"}, {"name": "ASKLEPIOS Schlossberg Klinik Bad K\u00f6nig", "lat": 49.7451173, "lon": 9.0050403, "city": "Bad K\u00f6nig", "state": "Hessen"}, {"name": "Kreiskrankenhaus Erbach", "lat": 49.6516651, "lon": 9.0006747, "city": "Erbach", "state": "Hessen"}, {"name": "ASKLEPIOS Klinik Seligenstadt", "lat": 50.0418547, "lon": 8.9644898, "city": "Seligenstadt", "state": "Hessen"}, {"name": "Bergman Clinics Mathilden-Hospital", "lat": 50.2871478, "lon": 9.1136021, "city": "B\u00fcdingen", "state": "Hessen"}, {"name": "AGAPLESION Evangelisches Krankenhaus Mittelhessen", "lat": 50.5924603, "lon": 8.648853, "city": "Gie\u00dfen", "state": "Hessen"}, {"name": "Vitos Klinikum Herborn", "lat": 50.6719358, "lon": 8.3013781, "city": "Herborn", "state": "Hessen"}, {"name": "DRK Krankenhaus Biedenkopf", "lat": 50.9134839, "lon": 8.5230662, "city": "Biedenkopf", "state": "Hessen"}, {"name": "Universit\u00e4tsklinikum Gie\u00dfen und Marburg GmbH", "lat": 50.8165448, "lon": 8.8064273, "city": "Marburg", "state": "Hessen"}, {"name": "Universit\u00e4tsklinikum Gie\u00dfen und Marburg GmbH", "lat": 50.8165448, "lon": 8.8064273, "city": "Marburg", "state": "Hessen"}, {"name": "Universit\u00e4tsklinikum Gie\u00dfen und Marburg GmbH", "lat": 50.8165448, "lon": 8.8064273, "city": "Marburg", "state": "Hessen"}, {"name": "Universit\u00e4tsklinikum Gie\u00dfen und Marburg GmbH", "lat": 50.8165448, "lon": 8.8064273, "city": "Marburg", "state": "Hessen"}, {"name": "Kreiskrankenhaus Schotten", "lat": 50.5065991, "lon": 9.1041817, "city": "Schotten", "state": "Hessen"}, {"name": "AGAPLESION DIAKONIE KLINIKEN KASSEL", "lat": 51.3141949, "lon": 9.462728, "city": "Kassel", "state": "Hessen"}, {"name": "Klinikum Kassel", "lat": 51.3278859, "lon": 9.5090224, "city": "Kassel", "state": "Hessen"}, {"name": "Hardtwaldklinik I", "lat": 51.061829, "lon": 9.1730843, "city": "Bad Zwesten", "state": "Hessen"}, {"name": "Krankenhaus Bad Arolsen", "lat": 51.3793857, "lon": 9.0079263, "city": "Bad Arolsen", "state": "Hessen"}, {"name": "Sch\u00f6n Klinik Bad Arolsen", "lat": 51.3799023, "lon": 9.0274855, "city": "Bad Arolsen", "state": "Hessen"}, {"name": "DRK Krankenhaus Kirchen", "lat": 50.8061404, "lon": 7.8792284, "city": "Kirchen (Sieg)", "state": "Rheinland-Pfalz"}, {"name": "Geriatrische Fachklinik Rheinhessen-Nahe", "lat": 49.810787, "lon": 7.8457355, "city": "Bad Kreuznach", "state": "Rheinland-Pfalz"}, {"name": "Gesundheitszentrum Glantal", "lat": 49.7065332, "lon": 7.6768326, "city": "Meisenheim, Glan", "state": "Rheinland-Pfalz"}, {"name": "DRK-Elisabeth-Krankenhaus Birkenfeld", "lat": 49.6456171, "lon": 7.1598129, "city": "Birkenfeld, Nahe", "state": "Rheinland-Pfalz"}, {"name": "Barmherzige Br\u00fcder Saffig", "lat": 50.3778925, "lon": 7.4195807, "city": "Saffig", "state": "Rheinland-Pfalz"}, {"name": "St. Joseph-Krankenhaus", "lat": 50.2118978, "lon": 6.4101199, "city": "Pr\u00fcm", "state": "Rheinland-Pfalz"}, {"name": "St\u00e4dtisches Krankenhaus Pirmasens", "lat": 49.1930324, "lon": 7.6176774, "city": "Pirmasens", "state": "Rheinland-Pfalz"}, {"name": "Diakonie-Klinikum Stuttgart", "lat": 48.7816357, "lon": 9.1639077, "city": "Stuttgart", "state": "Baden-W\u00fcrttemberg"}, {"name": "Herzog Karl Klinik", "lat": 48.7653516, "lon": 9.165559, "city": "Stuttgart", "state": "Baden-W\u00fcrttemberg"}, {"name": "Karl-Olga-Krankenhaus", "lat": 48.7897032, "lon": 9.204228, "city": "Stuttgart", "state": "Baden-W\u00fcrttemberg"}, {"name": "Klinikum Stuttgart", "lat": 48.7916756, "lon": 9.1789558, "city": "Stuttgart", "state": "Baden-W\u00fcrttemberg"}, {"name": "Klinikum Stuttgart", "lat": 48.7916756, "lon": 9.1789558, "city": "Stuttgart", "state": "Baden-W\u00fcrttemberg"}, {"name": "Klinik am Rathenauplatz", "lat": 49.1315683, "lon": 9.2189645, "city": "Heilbronn", "state": "Baden-W\u00fcrttemberg"}, {"name": "Zentrum f\u00fcr Psychische Gesundheit Schw\u00e4bisch Hall", "lat": 49.1084006, "lon": 9.7321667, "city": "Schw\u00e4bisch Hall", "state": "Baden-W\u00fcrttemberg"}, {"name": "Ostalb-Klinikum Aalen", "lat": 48.8490433, "lon": 10.0859887, "city": "Aalen", "state": "Baden-W\u00fcrttemberg"}, {"name": "Siloah St. Trupdert Klinikum", "lat": 48.8972522, "lon": 8.6742114, "city": "Pforzheim", "state": "Baden-W\u00fcrttemberg"}, {"name": "Neurologische Klinik Selzer", "lat": 48.6046168, "lon": 8.3584378, "city": "Baiersbronn", "state": "Baden-W\u00fcrttemberg"}, {"name": "Ameos Klinikum Kaiserstuhl", "lat": 48.1047135, "lon": 7.631512, "city": "Vogtsburg im Kaiserstuhl", "state": "Baden-W\u00fcrttemberg"}, {"name": "MediClin Klinik an der Lindenh\u00f6he", "lat": 48.4796176, "lon": 7.9560549, "city": "Offenburg", "state": "Baden-W\u00fcrttemberg"}, {"name": "MediClin Klinik an der Lindenh\u00f6he", "lat": 48.4796176, "lon": 7.9560549, "city": "Offenburg", "state": "Baden-W\u00fcrttemberg"}, {"name": "SRH Krankenhaus Oberndorf a. N.", "lat": 48.2958991, "lon": 8.5784183, "city": "Oberndorf am Neckar", "state": "Baden-W\u00fcrttemberg"}, {"name": "Helios Klinik Rottweil", "lat": 48.1654458, "lon": 8.6123458, "city": "Rottweil", "state": "Baden-W\u00fcrttemberg"}, {"name": "Herz-Zentrum Bodensee", "lat": 47.6717495, "lon": 9.1859157, "city": "Konstanz", "state": "Baden-W\u00fcrttemberg"}, {"name": "Hegau-Bodensee-Klinikum", "lat": 47.7594886, "lon": 8.8217946, "city": "Singen", "state": "Baden-W\u00fcrttemberg"}, {"name": "Krankenhaus Stockach", "lat": 47.8533142, "lon": 9.0094838, "city": "Stockach", "state": "Baden-W\u00fcrttemberg"}, {"name": "Janus-Klinik-Eltern-Kind", "lat": 47.6997625, "lon": 8.0063932, "city": "Herrischried", "state": "Baden-W\u00fcrttemberg"}, {"name": "Klinikum Hochrhein", "lat": 47.6224996, "lon": 8.2077841, "city": "Waldshut-Tiengen", "state": "Baden-W\u00fcrttemberg"}, {"name": "Albklinik M\u00fcnsingen", "lat": 48.4046356, "lon": 9.4896202, "city": "M\u00fcnsingen", "state": "Baden-W\u00fcrttemberg"}, {"name": "Akutklinik Albstadt", "lat": 48.2647401, "lon": 9.020126, "city": "Albstadt", "state": "Baden-W\u00fcrttemberg"}, {"name": "Bundeswehrkrankenhaus Ulm", "lat": 48.4249898, "lon": 9.947527, "city": "Ulm", "state": "Baden-W\u00fcrttemberg"}, {"name": "Universit\u00e4tsklinikum Ulm", "lat": 48.4221748, "lon": 9.9522164, "city": "Ulm", "state": "Baden-W\u00fcrttemberg"}, {"name": "Alb-Donau Klinikum", "lat": 48.4085475, "lon": 9.7895466, "city": "Blaubeuren", "state": "Baden-W\u00fcrttemberg"}, {"name": "Sana Kliniken Landkreis Biberach", "lat": 48.1119692, "lon": 9.7795695, "city": "Biberach an der Ri\u00df", "state": "Baden-W\u00fcrttemberg"}, {"name": "Klinikum Friedrichshafen", "lat": 47.6728866, "lon": 9.4303514, "city": "Friedrichshafen", "state": "Baden-W\u00fcrttemberg"}, {"name": "Klinik Tettnang", "lat": 47.672512, "lon": 9.5979795, "city": "Tettnang", "state": "Baden-W\u00fcrttemberg"}, {"name": "Internistisches Klinikum M\u00fcnchen S\u00fcd GmbH", "lat": 48.102374, "lon": 11.5477936, "city": "M\u00fcnchen", "state": "Bayern"}, {"name": "kbo-Kinderzentrum M\u00fcnchen", "lat": 48.10614, "lon": 11.477925, "city": "M\u00fcnchen", "state": "Bayern"}, {"name": "kbo-Kinderzentrum M\u00fcnchen", "lat": 48.10614, "lon": 11.477925, "city": "M\u00fcnchen", "state": "Bayern"}, {"name": "Klinikum Dritter Orden", "lat": 48.1657409, "lon": 11.5050996, "city": "M\u00fcnchen", "state": "Bayern"}, {"name": "Krankenhaus f\u00fcr Naturheilweisen", "lat": 48.0850004, "lon": 11.5564806, "city": "M\u00fcnchen", "state": "Bayern"}, {"name": "M\u00fcnchen Klinik Bogenhausen", "lat": 48.1551458, "lon": 11.6247718, "city": "M\u00fcnchen", "state": "Bayern"}, {"name": "M\u00fcnchen Klinik Harlaching", "lat": 48.0856519, "lon": 11.5574673, "city": "M\u00fcnchen", "state": "Bayern"}, {"name": "M\u00fcnchen Klinik Neuperlach", "lat": 48.0944452, "lon": 11.656037, "city": "M\u00fcnchen", "state": "Bayern"}, {"name": "M\u00fcnchen Klinik Schwabing", "lat": 48.1719273, "lon": 11.5784397, "city": "M\u00fcnchen", "state": "Bayern"}, {"name": "M\u00fcnchen Klinik Thalkirchner Stra\u00dfe", "lat": 48.1289836, "lon": 11.5642559, "city": "M\u00fcnchen", "state": "Bayern"}, {"name": "Rotkreuzklinikum M\u00fcnchen", "lat": 48.1539653, "lon": 11.5318274, "city": "M\u00fcnchen", "state": "Bayern"}, {"name": "Helios Amper-Klinikum Dachau", "lat": 48.2653705, "lon": 11.4283747, "city": "Dachau", "state": "Bayern"}, {"name": "Klinikum F\u00fcrstenfeldbruck", "lat": 48.1809057, "lon": 11.2593141, "city": "F\u00fcrstenfeldbruck", "state": "Bayern"}, {"name": "Berufsgenossenschaftliche Unfallklinik Murnau", "lat": 47.671591, "lon": 11.217932, "city": "Murnau a. Staffelsee", "state": "Bayern"}, {"name": "RoMed Klinik Bad Aibling", "lat": 47.8657835, "lon": 12.0172036, "city": "Bad Aibling", "state": "Bayern"}, {"name": "Arberlandklinik Viechtach", "lat": 49.0852461, "lon": 12.8754441, "city": "Viechtach", "state": "Bayern"}, {"name": "Klinik Bogen", "lat": 48.9096886, "lon": 12.6971313, "city": "Bogen", "state": "Bayern"}, {"name": "Caritas-Krankenhaus St. Josef", "lat": 49.0068486, "lon": 12.1189805, "city": "Regensburg", "state": "Bayern"}, {"name": "Universit\u00e4tsklinikum Regensburg", "lat": 48.9878505, "lon": 12.0876291, "city": "Regensburg", "state": "Bayern"}, {"name": "Universit\u00e4tsklinikum Regensburg", "lat": 48.9878505, "lon": 12.0876291, "city": "Regensburg", "state": "Bayern"}, {"name": "Spezialklinik Neukirchen GmbH & Co. KG", "lat": 49.2596977, "lon": 12.9675514, "city": "Neukirchen b. Hl. Blut", "state": "Bayern"}, {"name": "Bezirksklinikum W\u00f6llershof", "lat": 49.7488432, "lon": 12.1796716, "city": "St\u00f6rnstein", "state": "Bayern"}, {"name": "Kreisklinik W\u00f6rth a. d. Donau", "lat": 48.9986811, "lon": 12.3995138, "city": "W\u00f6rth a. d. Donau", "state": "Bayern"}, {"name": "Frankenalb-Klinik Engelthal", "lat": 49.4768888, "lon": 11.406473, "city": "Engelthal", "state": "Bayern"}, {"name": "Universit\u00e4tsklinikum W\u00fcrzburg", "lat": 49.8044728, "lon": 9.9436281, "city": "W\u00fcrzburg", "state": "Bayern"}, {"name": "HESCURO Klinik Bad Br\u00fcckenau", "lat": 50.3076411, "lon": 9.7852654, "city": "Bad Br\u00fcckenau", "state": "Bayern"}, {"name": "Krankenhaus Markt Werneck", "lat": 49.9813975, "lon": 10.0994959, "city": "Werneck", "state": "Bayern"}, {"name": "Orthop\u00e4disches Krankenhaus Schloss Werneck", "lat": 49.9803341, "lon": 10.1003533, "city": "Werneck", "state": "Bayern"}, {"name": "Bezirkskrankenhaus Augsburg", "lat": 48.3859215, "lon": 10.8332095, "city": "Augsburg", "state": "Bayern"}, {"name": "Bezirkskrankenhaus Augsburg", "lat": 48.3859215, "lon": 10.8332095, "city": "Augsburg", "state": "Bayern"}, {"name": "die stadtklinik im diako", "lat": 48.3678819, "lon": 10.8879326, "city": "Augsburg", "state": "Bayern"}, {"name": "Bezirkskrankenhaus Kaufbeuren", "lat": 47.8841629, "lon": 10.6117504, "city": "Kaufbeuren", "state": "Bayern"}, {"name": "Klinikum Memmingen A\u00f6R", "lat": 47.9824672, "lon": 10.1690292, "city": "Memmingen", "state": "Bayern"}, {"name": "Krankenhaus St. Camillus", "lat": 48.2716722, "lon": 10.4486085, "city": "Ursberg", "state": "Bayern"}, {"name": "ASKLEPIOS Klinik Lindau GmbH", "lat": 47.5636691, "lon": 9.6839427, "city": "Lindau", "state": "Bayern"}, {"name": "UKS - Universit\u00e4tsklinikum des Saarlandes", "lat": 49.3068447, "lon": 7.3453577, "city": "Homburg", "state": "Saarland"}, {"name": "Bundeswehrkrankenhaus Berlin", "lat": 52.5356575, "lon": 13.3713474, "city": "Berlin", "state": "Berlin"}, {"name": "DRK Kliniken Berlin Mitte", "lat": 52.5573634, "lon": 13.3752281, "city": "Berlin", "state": "Berlin"}, {"name": "J\u00fcdisches Krankenhaus Berlin", "lat": 52.5554121, "lon": 13.3703633, "city": "Berlin", "state": "Berlin"}, {"name": "Immanuel-Krankenhaus Berlin", "lat": 52.4194854, "lon": 13.1640021, "city": "Berlin", "state": "Berlin"}, {"name": "DRK Kliniken Berlin Westend", "lat": 52.5202624, "lon": 13.2772889, "city": "Berlin", "state": "Berlin"}, {"name": "Schlo\u00dfpark-Klinik", "lat": 52.5222814, "lon": 13.2897241, "city": "Berlin", "state": "Berlin"}, {"name": "Gemeinschaftskrankenhaus Havelh\u00f6he gGmbH", "lat": 52.4621451, "lon": 13.16295, "city": "Berlin", "state": "Berlin"}, {"name": "Evangelisches Krankenhaus Hubertus", "lat": 52.4308731, "lon": 13.219448, "city": "Berlin", "state": "Berlin"}, {"name": "Helios Klinikum Emil von Behring", "lat": 52.4227073, "lon": 13.2541807, "city": "Berlin", "state": "Berlin"}, {"name": "Kliniken im Theodor-Wenzel-Werk", "lat": 52.4226335, "lon": 13.2052083, "city": "Berlin", "state": "Berlin"}, {"name": "Krankenhaus Waldfriede", "lat": 52.4445001, "lon": 13.2398662, "city": "Berlin", "state": "Berlin"}, {"name": "DRK Kliniken Berlin K\u00f6penick", "lat": 52.4401114, "lon": 13.5957269, "city": "Berlin", "state": "Berlin"}, {"name": "Evangelisches Krankenhaus K\u00f6nigin Elisabeth Herzberge gGmbH", "lat": 52.5274171, "lon": 13.5095087, "city": "Berlin", "state": "Berlin"}, {"name": "Evangelisches Krankenhaus K\u00f6nigin Elisabeth Herzberge gGmbH", "lat": 52.5274171, "lon": 13.5095087, "city": "Berlin", "state": "Berlin"}, {"name": "ASKLEPIOS Fachklinikum Brandenburg", "lat": 52.4230806, "lon": 12.4800832, "city": "Brandenburg an der Havel", "state": "Brandenburg"}, {"name": "Immanuel Klinikum Bernau Herzzentrum Brandenburg", "lat": 52.6831766, "lon": 13.5826611, "city": "Bernau bei Berlin", "state": "Brandenburg"}, {"name": "Evangelisches Krankenhaus Luckau gGmbH", "lat": 51.8537283, "lon": 13.7032263, "city": "Luckau (NL)", "state": "Brandenburg"}, {"name": "ASKLEPIOS Fachklinikum Teupitz", "lat": 52.1312228, "lon": 13.6178994, "city": "Teupitz", "state": "Brandenburg"}, {"name": "St\u00e4dtisches Krankenhaus Eisenh\u00fcttenstadt GmbH", "lat": 52.1412034, "lon": 14.6250877, "city": "Eisenh\u00fcttenstadt", "state": "Brandenburg"}, {"name": "Krankenhaus Spremberg", "lat": 51.5652149, "lon": 14.3739244, "city": "Spremberg (NL)", "state": "Brandenburg"}, {"name": "ASKLEPIOS Klinikum Uckermark GmbH", "lat": 53.0528981, "lon": 14.275875, "city": "Schwedt/Oder", "state": "Brandenburg"}, {"name": "Universit\u00e4tsmedizin Rostock", "lat": 54.084638, "lon": 12.1028392, "city": "Rostock", "state": "Mecklenburg-Vorpommern"}, {"name": "Universit\u00e4tsmedizin Rostock", "lat": 54.084638, "lon": 12.1028392, "city": "Rostock", "state": "Mecklenburg-Vorpommern"}, {"name": "Universit\u00e4tsmedizin Rostock", "lat": 54.084638, "lon": 12.1028392, "city": "Rostock", "state": "Mecklenburg-Vorpommern"}, {"name": "Helios Kliniken Schwerin", "lat": 53.6515139, "lon": 11.4085471, "city": "Schwerin", "state": "Mecklenburg-Vorpommern"}, {"name": "Helios Hanseklinikum Stralsund GmbH", "lat": 54.3284936, "lon": 13.0814709, "city": "Stralsund", "state": "Mecklenburg-Vorpommern"}, {"name": "Sana HANSE-Klinikum Wismar GmbH", "lat": 53.8844672, "lon": 11.4385667, "city": "Wismar", "state": "Mecklenburg-Vorpommern"}, {"name": "Evangelisches Krankenhaus Bethanien gGmbH", "lat": 54.0781465, "lon": 13.3834484, "city": "Greifswald", "state": "Mecklenburg-Vorpommern"}, {"name": "Klinikum Karlsburg", "lat": 53.9704708, "lon": 13.6100796, "city": "Karlsburg", "state": "Mecklenburg-Vorpommern"}, {"name": "MediClin Krankenhaus Plau am See", "lat": 53.4788895, "lon": 12.2834487, "city": "Plau am See", "state": "Mecklenburg-Vorpommern"}, {"name": "ELBLANDKLINIKUM Radebeul", "lat": 51.108031, "lon": 13.650612, "city": "Radebeul", "state": "Sachsen"}, {"name": "Universit\u00e4tsklinikum Leipzig A\u00f6R", "lat": 51.330238, "lon": 12.3870755, "city": "Leipzig", "state": "Sachsen"}, {"name": "St. Joseph-Krankenhaus Dessau", "lat": 51.817703, "lon": 12.1969078, "city": "Dessau-Ro\u00dflau", "state": "Sachsen-Anhalt"}, {"name": "St. Joseph-Krankenhaus Dessau", "lat": 51.817703, "lon": 12.1969078, "city": "Dessau-Ro\u00dflau", "state": "Sachsen-Anhalt"}, {"name": "Diakoniekrankenhaus Halle", "lat": 51.494253, "lon": 11.958975, "city": "Halle (Saale)", "state": "Sachsen-Anhalt"}, {"name": "Krankenhaus St. Elisabeth und St. Barbara", "lat": 51.4775469, "lon": 11.9681942, "city": "Halle (Saale)", "state": "Sachsen-Anhalt"}, {"name": "Klinikum in den Pfeifferschen Stiftungen GmbH", "lat": 52.1152065, "lon": 11.6678862, "city": "Magdeburg", "state": "Sachsen-Anhalt"}, {"name": "Universit\u00e4tsklinikum Magdeburg", "lat": 52.102679, "lon": 11.6152851, "city": "Magdeburg", "state": "Sachsen-Anhalt"}, {"name": "AMEOS Klinikum Haldensleben", "lat": 52.2855412, "lon": 11.3769246, "city": "Haldensleben", "state": "Sachsen-Anhalt"}, {"name": "Diakonie-Krankenhaus Harz GmbH", "lat": 51.7721178, "lon": 10.7906065, "city": "Oberharz am Brocken OT Elbingerode", "state": "Sachsen-Anhalt"}, {"name": "AMEOS Klinikum Bernburg GmbH", "lat": 51.7823822, "lon": 11.7352523, "city": "Bernburg", "state": "Sachsen-Anhalt"}, {"name": "SALUS gGmbH Fachklinikum Uchtspringe", "lat": 52.5391414, "lon": 11.597177, "city": "Stendal", "state": "Sachsen-Anhalt"}, {"name": "SALUS gGmbH Fachklinikum Uchtspringe", "lat": 52.5391414, "lon": 11.597177, "city": "Stendal", "state": "Sachsen-Anhalt"}, {"name": "Katholisches Krankenhaus \"St. Johann Nepomuk\" Erfurt", "lat": 50.9477408, "lon": 11.0850534, "city": "Erfurt", "state": "Th\u00fcringen"}, {"name": "SRH Wald-Klinikum Gera", "lat": 50.8685809, "lon": 12.0511131, "city": "Gera", "state": "Th\u00fcringen"}, {"name": "Universit\u00e4tsklinikum Jena", "lat": 50.8853957, "lon": 11.6208646, "city": "Jena", "state": "Th\u00fcringen"}, {"name": "Universit\u00e4tsklinikum Jena", "lat": 50.8853957, "lon": 11.6208646, "city": "Jena", "state": "Th\u00fcringen"}, {"name": "Universit\u00e4tsklinikum Jena", "lat": 50.8853957, "lon": 11.6208646, "city": "Jena", "state": "Th\u00fcringen"}, {"name": "Dr. Becker Burg-Klinik", "lat": 50.7824358, "lon": 10.1275561, "city": "Dermbach", "state": "Th\u00fcringen"}, {"name": "SRH Krankenhaus Waltershausen-Friedrichroda GmbH", "lat": 50.8609546, "lon": 10.5603936, "city": "Friedrichroda", "state": "Th\u00fcringen"}, {"name": "REGIOMED Klinikum Hildburghausen", "lat": 50.4292246, "lon": 10.7284895, "city": "Hildburghausen", "state": "Th\u00fcringen"}, {"name": "Zentralklinik Bad Berka GmbH", "lat": 50.890018, "lon": 11.2670446, "city": "Bad Berka", "state": "Th\u00fcringen"}, {"name": "Helios Klinik Blankenhain GmbH", "lat": 50.8601016, "lon": 11.3394497, "city": "Blankenhain", "state": "Th\u00fcringen"}, {"name": "Fachkrankenhaus f\u00fcr Dermatologie Schloss Friedensburg GmbH", "lat": 50.5653275, "lon": 11.45887, "city": "Leutenberg, Th\u00fcringen", "state": "Th\u00fcringen"}, {"name": "Klinik an der Wei\u00dfenburg GmbH", "lat": 50.731318, "lon": 11.4483644, "city": "Uhlst\u00e4dt-Kirchhasel", "state": "Th\u00fcringen"}, {"name": "ASKLEPIOS Fachklinikum Stadtroda GmbH", "lat": 50.8619133, "lon": 11.7265646, "city": "Stadtroda", "state": "Th\u00fcringen"}, {"name": "Sternbach-Klinik Schleiz GmbH", "lat": 50.5765925, "lon": 11.8175753, "city": "Schleiz", "state": "Th\u00fcringen"}, {"name": "", "lat": 51.123384, "lon": 13.9306037, "city": "", "state": ""}, {"name": "", "lat": 51.123384, "lon": 13.9306037, "city": "", "state": ""}]